REGION,PROV_CODE,PROV_NAME,DIST_CODE,DIST_NAME,INC_DATE,INC_TYPE,Persons_killed,Persons_injured,Individuals_affected,Families_affected,Houses_damaged,Houses_destroyed,Season,Latitude,Longitude
Eastern,7,Laghman,701,Mehtarlam,2016-01-31,Flood / flash flood,0,0,62,10,8,2,Winter,34.666954,70.071718
North Eastern,15,Badakhshan,1504,Arghanjkhwa,2016-02-13,Avalanche,3,0,21,3,0,0,Winter,37.366577,70.970672
Central Highland,22,Daykundi,2207,Sang-e-Takht,2016-03-07,Flood / flash flood,10,1,19,8,0,5,Spring,34.178306,65.86074
Northern,18,Balkh,1803,Shortepa,2016-03-10,Flood / flash flood,0,0,1533,219,0,219,Spring,37.213477,66.83258
Western,31,Farah,3101,Farah,2016-03-11,Flood / flash flood,18,9,996,150,88,32,Spring,32.23408,62.222932
Western,30,Hirat,3003,Kushk,2016-03-11,Flood / flash flood,0,0,169,21,21,0,Spring,35.013721,62.201428
Eastern,13,Kunar,1306,Shigal Wa Sheltan,2016-03-13,Flood / flash flood,0,0,21,3,2,0,Spring,35.019947,71.233756
Eastern,13,Kunar,1301,Asadabad,2016-03-13,Flood / flash flood,0,0,7,1,1,0,Spring,34.859883,71.117064
Eastern,13,Kunar,1313,Chapadara,2016-03-13,Flood / flash flood,0,0,42,6,6,0,Spring,34.901138,70.700645
Eastern,14,Nuristan,1403,Duab,2016-03-13,Flood / flash flood,0,0,7,1,1,0,Spring,35.216128,70.35288
Eastern,13,Kunar,1310,Dangam,2016-03-13,Flood / flash flood,0,0,28,4,4,0,Spring,35.015631,71.446189
Eastern,13,Kunar,1311,Barkunar,2016-03-13,Flood / flash flood,0,0,28,4,4,0,Spring,35.062438,71.392415
Eastern,13,Kunar,1302,Watapur,2016-03-13,Flood / flash flood,0,0,15,2,2,0,Spring,34.972029,71.079464
Eastern,14,Nuristan,1404,Nurgeram,2016-03-13,Flood / flash flood,0,0,77,11,11,0,Spring,35.073995,70.469496
Eastern,13,Kunar,1307,Dara-e-Pech,2016-03-13,Flood / flash flood,0,0,56,8,4,4,Spring,34.931473,70.911379
Southern,32,Hilmand,3204,Nawa-e-Barakzaiy,2016-03-17,Flood / flash flood,0,0,83,11,11,0,Spring,31.355971,64.217749
Southern,32,Hilmand,3203,Nad-e-Ali,2016-03-17,Flood / flash flood,0,0,537,72,70,2,Spring,31.598961,63.835034
Southern,24,Zabul,2401,Qalat,2016-03-17,Flood / flash flood,0,0,19,3,0,3,Spring,32.187366,66.953465
Western,30,Hirat,3006,Pashtunzarghun,2016-03-17,Flood / flash flood,0,0,82,10,10,0,Spring,34.13202,62.728806
Central Highland,22,Daykundi,2209,Miramor,2016-03-17,Flood / flash flood,0,1,85,11,0,11,Spring,33.826512,66.987777
Southern,33,Kandahar,3305,Daman,2016-03-18,Flood / flash flood,0,0,135,20,18,2,Spring,31.156011,65.741152
Southern,32,Hilmand,3201,Lashkargah,2016-03-18,Flood / flash flood,0,0,159,21,21,0,Spring,31.451536,64.522944
Southern,33,Kandahar,3311,Spinboldak,2016-03-18,Flood / flash flood,0,0,230,34,34,0,Spring,30.952222,66.135407
Western,21,Ghor,2101,Chaghcharan,2016-03-19,Flood / flash flood,0,0,63,7,6,1,Spring,34.524334,65.238265
Central Highland,22,Daykundi,2208,Kajran,2016-03-19,Flood / flash flood,0,0,4,1,0,1,Spring,33.225734,65.618465
North Eastern,15,Badakhshan,1516,Kofab,2016-03-22,Avalanche,2,1,0,0,0,0,Spring,37.957225,70.699284
South Eastern,11,Ghazni,1101,Ghazni,2016-03-24,Flood / flash flood,0,0,35,5,3,0,Spring,33.541807,68.441991
Central Highland,22,Daykundi,2208,Kajran,2016-03-25,Flood / flash flood,0,0,6,1,0,1,Spring,33.225734,65.618465
Capital,3,Parwan,301,Charikar,2016-03-26,Flood / flash flood,0,0,107,15,9,6,Spring,34.955632,69.120882
Capital,3,Parwan,306,Salang,2016-03-26,Flood / flash flood,0,0,48,7,0,7,Spring,35.293998,69.163208
Capital,3,Parwan,305,Saydkhel,2016-03-26,Flood / flash flood,0,0,8,1,0,1,Spring,35.04724,69.282208
Capital,3,Parwan,304,Bagram,2016-03-26,Flood / flash flood,0,0,8,1,0,1,Spring,34.905671,69.377716
Capital,3,Parwan,302,Jabalussaraj,2016-03-26,Flood / flash flood,0,0,16,2,0,2,Spring,35.12966,69.202044
South Eastern,12,Paktya,1202,Sayedkaram,2016-03-31,Flood / flash flood,0,0,48,5,5,0,Spring,33.731336,69.469893
Central Highland,10,Bamyan,1001,Bamyan,2016-03-31,Landslide / mudflow,0,0,10,2,2,0,Spring,34.755695,67.640391
South Eastern,12,Paktya,1201,Gardez,2016-03-31,Flood / flash flood,0,0,96,10,8,0,Spring,33.599864,69.229343
South Eastern,12,Paktya,1208,Alikhel (Jaji),2016-03-31,Flood / flash flood,2,0,892,96,31,0,Spring,33.954034,69.697367
South Eastern,12,Paktya,1210,Chamkani,2016-03-31,Flood / flash flood,0,0,113,13,13,0,Spring,33.793514,69.791159
Central Highland,10,Bamyan,1007,Waras,2016-03-31,Flood / flash flood,0,0,17,3,3,0,Spring,34.163208,66.930112
South Eastern,12,Paktya,1206,Zadran,2016-03-31,Flood / flash flood,0,0,808,89,29,0,Spring,33.416216,69.424522
Central Highland,10,Bamyan,1004,Panjab,2016-04-01,Flood / flash flood,0,0,241,33,23,10,Spring,34.38689,66.930673
Central Highland,22,Daykundi,2206,Shahrestan,2016-04-01,Flood / flash flood,0,0,21,4,0,4,Spring,33.694575,66.480494
Central Highland,22,Daykundi,2203,Khadir,2016-04-01,Flood / flash flood,1,0,24,4,38,3,Spring,33.866089,65.787183
Central Highland,22,Daykundi,2204,kiti,2016-04-01,Flood / flash flood,2,0,488,67,42,30,Spring,33.53046,65.74766
Capital,1,Kabul,101,Kabul,2016-04-01,Flood / flash flood,0,2,2016,288,1500,0,Spring,34.527913,69.169074
Capital,1,Kabul,107,Bagrami,2016-04-01,Flood / flash flood,0,0,3374,482,482,0,Spring,34.48912,69.305418
Central Highland,10,Bamyan,1004,Panjab,2016-04-01,Earthquake,0,0,10,1,1,0,Spring,34.38689,66.930673
Central Highland,22,Daykundi,2201,Nili,2016-04-01,Flood / flash flood,3,0,107,2,16,1,Spring,33.741085,66.078538
Central Highland,22,Daykundi,2209,Miramor,2016-04-01,Flood / flash flood,0,0,27,4,0,4,Spring,33.826512,66.987777
Central Highland,22,Daykundi,2208,Kajran,2016-04-01,Flood / flash flood,0,0,168,26,12,7,Spring,33.225734,65.618465
Central Highland,10,Bamyan,1007,Waras,2016-04-01,Flood / flash flood,0,0,97,15,6,9,Spring,34.163208,66.930112
Southern,23,Uruzgan,2302,Chora,2016-04-02,Flood / flash flood,1,0,466,66,64,0,Spring,33.02258,66.239689
Southern,23,Uruzgan,2301,Tirinkot,2016-04-02,Flood / flash flood,4,0,2328,339,290,39,Spring,32.65496,65.849924
Eastern,7,Laghman,704,Alingar,2016-04-02,Flood / flash flood,0,2,100,17,0,3,Spring,34.833038,70.425705
Capital,1,Kabul,107,Bagrami,2016-04-02,Flood / flash flood,0,0,1480,202,55,147,Spring,34.48912,69.305418
Eastern,7,Laghman,701,Mehtarlam,2016-04-02,Flood / flash flood,1,1,34,5,0,0,Spring,34.666954,70.071718
Western,30,Hirat,3006,Pashtunzarghun,2016-04-02,Flood / flash flood,1,0,21,4,0,4,Spring,34.13202,62.728806
Central Highland,10,Bamyan,1001,Bamyan,2016-04-02,Flood / flash flood,0,0,45,3,0,3,Spring,34.755695,67.640391
Central Highland,22,Daykundi,2209,Miramor,2016-04-02,Flood / flash flood,1,0,87,12,13,8,Spring,33.826512,66.987777
Central Highland,22,Daykundi,2201,Nili,2016-04-02,Flood / flash flood,0,0,8,2,2,0,Spring,33.741085,66.078538
Central Highland,10,Bamyan,1004,Panjab,2016-04-02,Flood / flash flood,1,0,897,128,130,4,Spring,34.38689,66.930673
Western,21,Ghor,2101,Chaghcharan,2016-04-02,Flood / flash flood,0,0,23,4,3,1,Spring,34.524334,65.238265
Central Highland,22,Daykundi,2206,Shahrestan,2016-04-02,Flood / flash flood,0,0,114,19,44,18,Spring,33.694575,66.480494
Eastern,7,Laghman,703,Qarghayi,2016-04-02,Flood / flash flood,0,0,56,6,6,0,Spring,34.543504,70.214523
Central Highland,22,Daykundi,2204,kiti,2016-04-02,Flood / flash flood,0,0,32,4,4,0,Spring,33.53046,65.74766
Eastern,7,Laghman,705,Dawlatshah,2016-04-02,Flood / flash flood,0,0,16,4,0,1,Spring,35.03591,70.00979
Capital,1,Kabul,101,Kabul,2016-04-02,Flood / flash flood,0,0,147,21,9,12,Spring,34.527913,69.169074
Central Highland,10,Bamyan,1001,Bamyan,2016-04-03,Flood / flash flood,0,0,30,4,0,4,Spring,34.755695,67.640391
South Eastern,11,Ghazni,1113,Jaghuri,2016-04-03,Flood / flash flood,0,3,169,41,32,9,Spring,33.09056,67.505361
South Eastern,11,Ghazni,1109,Jaghatu,2016-04-03,Flood / flash flood,0,2,49,12,8,4,Spring,33.557445,68.126387
Central Highland,10,Bamyan,1004,Panjab,2016-04-03,Flood / flash flood,0,0,244,34,34,0,Spring,34.38689,66.930673
Central Highland,22,Daykundi,2209,Miramor,2016-04-03,Flood / flash flood,0,0,0,10,0,0,Spring,33.826512,66.987777
Capital,3,Parwan,306,Salang,2016-04-03,Flood / flash flood,0,0,16,2,0,2,Spring,35.293998,69.163208
Central Highland,10,Bamyan,1003,Yakawlang,2016-04-03,Flood / flash flood,0,0,34,3,3,0,Spring,35.039948,66.994871
Capital,3,Parwan,309,Shekhali,2016-04-03,Flood / flash flood,0,0,45,5,2,3,Spring,34.961071,68.393194
South Eastern,11,Ghazni,1112,Nawur,2016-04-03,Flood / flash flood,0,1,48,12,11,1,Spring,33.799362,67.787358
Eastern,6,Nangarhar,618,Shinwar,2016-04-03,Flood / flash flood,0,0,100,14,9,5,Spring,34.205904,70.816901
Capital,3,Parwan,305,Saydkhel,2016-04-03,Flood / flash flood,0,0,6,1,1,0,Spring,35.04724,69.282208
Eastern,6,Nangarhar,601,Jalalabad,2016-04-03,Flood / flash flood,0,0,33,4,2,2,Spring,34.419822,70.436525
Capital,3,Parwan,301,Charikar,2016-04-03,Flood / flash flood,0,0,84,12,7,5,Spring,34.955632,69.120882
South Eastern,11,Ghazni,1117,Malestan,2016-04-03,Flood / flash flood,0,0,71,20,15,5,Spring,33.279368,67.240794
Eastern,6,Nangarhar,604,Khogyani,2016-04-03,Flood / flash flood,0,0,17,2,0,2,Spring,34.446776,70.68128
Eastern,6,Nangarhar,622,Durbaba,2016-04-03,Flood / flash flood,2,0,161,24,22,2,Spring,34.098842,70.943709
Western,21,Ghor,2101,Chaghcharan,2016-04-03,Flood / flash flood,0,0,18,3,0,3,Spring,34.524334,65.238265
Eastern,6,Nangarhar,605,Chaparhar,2016-04-03,Flood / flash flood,0,0,40,7,2,5,Spring,34.298027,70.367422
Eastern,6,Nangarhar,606,Rodat,2016-04-03,Flood / flash flood,0,0,16,2,0,2,Spring,34.256662,70.550781
Capital,3,Parwan,303,Shinwari,2016-04-03,Flood / flash flood,0,0,42,7,5,2,Spring,35.135028,68.973098
Southern,32,Hilmand,3204,Nawa-e-Barakzaiy,2016-04-04,Flood / flash flood,0,0,231,33,33,0,Spring,31.355971,64.217749
Central Highland,22,Daykundi,2201,Nili,2016-04-04,Flood / flash flood,1,0,7,1,0,0,Spring,33.741085,66.078538
Western,21,Ghor,2101,Chaghcharan,2016-04-04,Flood / flash flood,0,0,140,20,20,0,Spring,34.524334,65.238265
Central Highland,10,Bamyan,1001,Bamyan,2016-04-04,Flood / flash flood,0,0,23,3,1,2,Spring,34.755695,67.640391
Central Highland,10,Bamyan,1005,Shibar,2016-04-04,Flood / flash flood,0,0,54,7,7,0,Spring,34.891351,68.027679
South Eastern,11,Ghazni,1113,Jaghuri,2016-04-04,Flood / flash flood,0,4,60,15,7,8,Spring,33.09056,67.505361
South Eastern,11,Ghazni,1117,Malestan,2016-04-04,Flood / flash flood,1,3,181,54,30,14,Spring,33.279368,67.240794
North Eastern,15,Badakhshan,1507,Yawan,2016-04-05,Flood / flash flood,0,0,21,3,0,3,Spring,37.514601,70.388243
South Eastern,11,Ghazni,1109,Jaghatu,2016-04-05,Flood / flash flood,0,0,45,8,6,2,Spring,33.557445,68.126387
Capital,5,Logar,502,Khoshi,2016-04-07,Flood / flash flood,0,0,269,76,64,12,Spring,33.992404,69.292073
Western,21,Ghor,2101,Chaghcharan,2016-04-07,Flood / flash flood,0,0,20,2,0,2,Spring,34.524334,65.238265
Central Highland,10,Bamyan,1001,Bamyan,2016-04-07,Flood / flash flood,0,0,14,1,0,1,Spring,34.755695,67.640391
Central Highland,10,Bamyan,1001,Bamyan,2016-04-07,Earthquake,0,0,16,3,0,3,Spring,34.755695,67.640391
Capital,5,Logar,506,Kharwar,2016-04-07,Flood / flash flood,0,0,24,6,6,0,Spring,33.702837,68.890243
North Eastern,9,Baghlan,901,Pul-e-Khumri,2016-04-08,Flood / flash flood,0,0,812,116,80,36,Spring,36.011946,68.636293
Capital,5,Logar,501,Pul-e-Alam,2016-04-08,Flood / flash flood,0,0,114,31,23,8,Spring,33.991566,69.046969
Capital,5,Logar,503,Mohammadagha,2016-04-08,Flood / flash flood,0,0,55,20,19,1,Spring,34.201218,69.194122
Capital,1,Kabul,103,Shakardara,2016-04-08,Flood / flash flood,0,0,29,7,0,7,Spring,34.66827,69.06244
Capital,1,Kabul,101,Kabul,2016-04-08,Flood / flash flood,7,0,434,120,69,51,Spring,34.527913,69.169074
Central Highland,10,Bamyan,1004,Panjab,2016-04-09,Flood / flash flood,0,0,77,13,1,1,Spring,34.38689,66.930673
Eastern,13,Kunar,1309,Khaskunar,2016-04-10,Flood / flash flood,0,0,56,8,8,0,Spring,34.599138,70.919872
North Eastern,16,Takhar,1609,Rostaq,2016-04-10,Earthquake,0,0,21,3,1,2,Spring,37.110428,69.836849
Eastern,13,Kunar,1306,Shigal Wa Sheltan,2016-04-10,Flood / flash flood,0,0,84,12,6,0,Spring,35.019947,71.233756
Eastern,13,Kunar,1314,Nurgal,2016-04-10,Flood / flash flood,0,0,7,1,1,0,Spring,34.700584,70.728239
Eastern,14,Nuristan,1401,Poruns,2016-04-10,Earthquake,0,0,35,5,5,0,Spring,35.421264,70.787779
Eastern,14,Nuristan,1401,Poruns,2016-04-10,Flood / flash flood,0,0,177,25,25,0,Spring,35.421264,70.787779
Eastern,13,Kunar,1303,Narang,2016-04-10,Flood / flash flood,0,0,14,2,2,0,Spring,34.817816,71.019069
Eastern,13,Kunar,1305,Marawara,2016-04-10,Earthquake,0,0,21,3,3,0,Spring,34.856211,71.219828
South Eastern,12,Paktya,1201,Gardez,2016-04-10,Earthquake,0,0,12,1,0,1,Spring,33.599864,69.229343
Eastern,13,Kunar,1306,Shigal Wa Sheltan,2016-04-10,Earthquake,0,0,35,5,5,0,Spring,35.019947,71.233756
Eastern,13,Kunar,1301,Asadabad,2016-04-10,Earthquake,0,0,47,7,7,0,Spring,34.859883,71.117064
Eastern,13,Kunar,1313,Chapadara,2016-04-10,Flood / flash flood,0,0,56,8,4,0,Spring,34.901138,70.700645
North Eastern,16,Takhar,1606,Namakab,2016-04-10,Earthquake,0,0,259,37,37,0,Spring,36.431875,69.69493
Eastern,13,Kunar,1301,Asadabad,2016-04-10,Flood / flash flood,0,0,394,56,32,0,Spring,34.859883,71.117064
Eastern,13,Kunar,1307,Dara-e-Pech,2016-04-10,Flood / flash flood,0,0,14,2,2,0,Spring,34.931473,70.911379
North Eastern,15,Badakhshan,1505,Kohestan,2016-04-10,Earthquake,0,0,42,6,6,0,Spring,37.410686,70.662149
Capital,8,Panjsher,806,Onaba(Anawa),2016-04-11,Flood / flash flood,0,0,47,5,2,3,Spring,35.231519,69.374122
Capital,8,Panjsher,804,Dara,2016-04-12,Flood / flash flood,0,0,59,9,5,4,Spring,35.233269,69.746063
Eastern,13,Kunar,1308,Chawkay,2016-04-12,Flood / flash flood,7,1,14,2,0,2,Spring,34.745481,70.862733
Capital,8,Panjsher,803,Rukha,2016-04-13,Flood / flash flood,0,0,80,10,5,5,Spring,35.245062,69.484266
North Eastern,16,Takhar,1601,Taloqan,2016-04-14,Flood / flash flood,0,0,388,62,62,0,Spring,36.742722,69.523116
Central Highland,22,Daykundi,2202,Ashtarlay,2016-04-14,Flood / flash flood,0,0,7,1,0,1,Spring,34.120485,66.176998
Central Highland,22,Daykundi,2202,Ashtarlay,2016-04-15,Flood / flash flood,0,0,21,3,0,3,Spring,34.120485,66.176998
Western,29,Badghis,2903,Abkamari,2016-04-16,Flood / flash flood,4,0,0,0,0,0,Spring,35.013638,62.966459
Western,30,Hirat,3007,Karukh,2016-04-16,Flood / flash flood,0,0,38,6,0,6,Spring,34.483692,62.656587
Central Highland,22,Daykundi,2202,Ashtarlay,2016-04-16,Flood / flash flood,0,0,126,18,5,18,Spring,34.120485,66.176998
Northern,28,Faryab,2801,Maymana,2016-04-16,Flood / flash flood,0,0,72,10,10,0,Spring,35.901683,64.758825
Western,29,Badghis,2905,Jawand,2016-04-16,Flood / flash flood,1,1,0,0,0,0,Spring,34.972066,64.274702
North Eastern,9,Baghlan,904,Doshi,2016-04-16,Flood / flash flood,0,0,329,47,42,5,Spring,35.582004,68.661703
Western,30,Hirat,3005,Guzara,2016-04-16,Flood / flash flood,0,0,20,3,3,0,Spring,34.040952,62.013878
Northern,18,Balkh,1813,Chemtal,2016-04-16,Flood / flash flood,0,0,304,41,41,0,Spring,36.520381,66.603756
Northern,19,Samangan,1902,Hazrat-e- Sultan,2016-04-16,Flood / flash flood,0,0,972,143,88,55,Spring,36.336484,67.867911
Central Highland,22,Daykundi,2209,Miramor,2016-04-16,Flood / flash flood,0,0,49,7,7,5,Spring,33.826512,66.987777
Western,21,Ghor,2101,Chaghcharan,2016-04-16,Flood / flash flood,0,0,35,5,0,0,Spring,34.524334,65.238265
North Eastern,9,Baghlan,901,Pul-e-Khumri,2016-04-16,Flood / flash flood,0,0,1017,241,179,62,Spring,36.011946,68.636293
North Eastern,9,Baghlan,910,Burka,2016-04-16,Flood / flash flood,11,1,252,36,6,26,Spring,36.265304,69.161208
Capital,8,Panjsher,801,Bazarak,2016-04-16,Flood / flash flood,0,0,49,6,2,4,Spring,35.383449,69.497632
Central Highland,10,Bamyan,1001,Bamyan,2016-04-16,Landslide / mudflow,0,0,177,24,7,0,Spring,34.755695,67.640391
Northern,18,Balkh,1801,Mazar-e-Sharif,2016-04-16,Flood / flash flood,0,0,250,51,33,18,Spring,36.703226,67.112903
Central Highland,22,Daykundi,2206,Shahrestan,2016-04-16,Flood / flash flood,0,0,47,6,3,5,Spring,33.694575,66.480494
Western,30,Hirat,3002,Injil,2016-04-16,Flood / flash flood,1,0,404,54,23,31,Spring,34.411669,62.207729
Northern,19,Samangan,1904,Dara-e- Suf-e- Payin,2016-04-16,Flood / flash flood,4,0,156,27,23,4,Spring,35.948532,67.297894
Central Highland,22,Daykundi,2204,kiti,2016-04-16,Flood / flash flood,0,0,56,8,0,8,Spring,33.53046,65.74766
Western,29,Badghis,2901,Qala-e-Naw,2016-04-16,Flood / flash flood,0,0,13,2,2,0,Spring,34.861003,63.130681
Western,29,Badghis,2902,Muqur,2016-04-16,Flood / flash flood,12,2,0,0,0,0,Spring,35.108166,63.260315
Capital,8,Panjsher,807,Paryan,2016-04-16,Flood / flash flood,0,0,93,13,8,5,Spring,35.678605,70.063764
Northern,18,Balkh,1809,Khulm,2016-04-16,Flood / flash flood,0,2,955,153,32,121,Spring,36.842767,67.681307
Northern,18,Balkh,1802,Nahr-e-Shahi,2016-04-16,Flood / flash flood,0,0,374,66,51,15,Spring,36.827572,67.23353
North Eastern,15,Badakhshan,1502,Yaftal-e-Sufla,2016-04-17,Flood / flash flood,0,0,57,5,1,1,Spring,37.29251,70.36165
Central Highland,10,Bamyan,1001,Bamyan,2016-04-17,Flood / flash flood,0,0,154,22,7,17,Spring,34.755695,67.640391
Central Highland,22,Daykundi,2203,Khadir,2016-04-17,Flood / flash flood,1,0,107,16,0,17,Spring,33.866089,65.787183
North Eastern,15,Badakhshan,1503,Argo,2016-04-17,Flood / flash flood,0,0,115,21,5,3,Spring,37.031002,70.413852
Western,30,Hirat,3005,Guzara,2016-04-17,Flood / flash flood,0,0,7,1,0,0,Spring,34.040952,62.013878
Northern,28,Faryab,2803,Pashtunkot,2016-04-17,Flood / flash flood,0,0,250,36,33,3,Spring,35.838939,64.782672
North Eastern,16,Takhar,1601,Taloqan,2016-04-17,Flood / flash flood,1,2,2542,369,306,63,Spring,36.742722,69.523116
North Eastern,16,Takhar,1615,Eshkmesh,2016-04-17,Flood / flash flood,0,0,42,9,9,0,Spring,36.390203,69.386506
Central Highland,22,Daykundi,2206,Shahrestan,2016-04-17,Flood / flash flood,0,0,54,7,3,5,Spring,33.694575,66.480494
North Eastern,17,Kunduz,1701,Kunduz,2016-04-17,Flood / flash flood,0,0,14,2,0,2,Spring,36.792264,68.86046
Northern,19,Samangan,1901,Aybak,2016-04-17,Flood / flash flood,0,0,620,107,73,34,Spring,36.235103,68.237777
North Eastern,16,Takhar,1601,Taloqan,2016-04-18,Flood / flash flood,6,6,1072,180,156,23,Spring,36.742722,69.523116
Northern,18,Balkh,1809,Khulm,2016-04-18,Flood / flash flood,0,0,54,9,6,3,Spring,36.842767,67.681307
North Eastern,16,Takhar,1601,Taloqan,2016-04-19,Flood / flash flood,2,1,212,32,29,3,Spring,36.742722,69.523116
North Eastern,9,Baghlan,907,Khenjan,2016-04-19,Flood / flash flood,0,0,175,25,22,3,Spring,35.453058,68.986856
Eastern,6,Nangarhar,605,Chaparhar,2016-04-19,Flood / flash flood,0,2,76,9,5,4,Spring,34.298027,70.367422
North Eastern,9,Baghlan,905,Nahrin,2016-04-19,Flood / flash flood,1,1,483,69,49,20,Spring,36.004002,69.020081
Central Highland,22,Daykundi,2207,Sang-e-Takht,2016-04-20,Flood / flash flood,1,0,7,1,0,0,Spring,34.178306,65.86074
Western,21,Ghor,2102,Charsadra,2016-04-21,Landslide / mudflow,0,0,0,0,50,0,Spring,35.115234,65.017518
Capital,3,Parwan,310,Surkh-e- Parsa,2016-04-22,Flood / flash flood,0,0,83,13,11,2,Spring,34.742986,68.643355
Capital,3,Parwan,303,Shinwari,2016-04-22,Flood / flash flood,0,0,130,20,13,7,Spring,35.135028,68.973098
Capital,3,Parwan,301,Charikar,2016-04-22,Flood / flash flood,0,0,120,22,16,6,Spring,34.955632,69.120882
Capital,3,Parwan,304,Bagram,2016-04-22,Flood / flash flood,0,0,48,6,1,5,Spring,34.905671,69.377716
Capital,3,Parwan,306,Salang,2016-04-22,Flood / flash flood,0,0,50,6,2,4,Spring,35.293998,69.163208
Capital,3,Parwan,305,Saydkhel,2016-04-22,Flood / flash flood,0,0,42,5,4,1,Spring,35.04724,69.282208
Capital,3,Parwan,302,Jabalussaraj,2016-04-22,Flood / flash flood,0,0,25,3,1,2,Spring,35.12966,69.202044
Capital,3,Parwan,307,Ghorband,2016-04-22,Flood / flash flood,0,0,64,11,6,5,Spring,34.987058,68.799341
North Eastern,15,Badakhshan,1501,Fayzabad,2016-04-27,Flood / flash flood,0,0,21,2,0,1,Spring,37.217022,70.62815
Northern,19,Samangan,1907,Ruy-e-Duab,2016-05-02,Flood / flash flood,0,0,426,97,90,7,Spring,35.611123,67.76801
Northern,19,Samangan,1901,Aybak,2016-05-02,Flood / flash flood,0,2,1980,365,239,95,Spring,36.235103,68.237777
Western,21,Ghor,2101,Chaghcharan,2016-05-02,Flood / flash flood,0,0,902,117,79,38,Spring,34.524334,65.238265
North Eastern,15,Badakhshan,1503,Argo,2016-05-02,Flood / flash flood,0,0,56,9,9,0,Spring,37.031002,70.413852
Western,21,Ghor,2103,DoLayna,2016-05-02,Flood / flash flood,0,0,21,2,0,2,Spring,34.072791,64.861074
Central Highland,10,Bamyan,1002,Sayghan,2016-05-03,Flood / flash flood,0,0,278,50,35,15,Spring,35.124416,67.624207
Capital,5,Logar,501,Pul-e-Alam,2016-05-03,Flood / flash flood,0,0,299,50,37,13,Spring,33.991566,69.046969
Northern,19,Samangan,1901,Aybak,2016-05-03,Flood / flash flood,0,0,163,18,17,1,Spring,36.235103,68.237777
Capital,5,Logar,502,Khoshi,2016-05-03,Flood / flash flood,0,0,109,16,16,0,Spring,33.992404,69.292073
Capital,4,Wardak,401,Maydanshahr,2016-05-03,Flood / flash flood,0,0,415,76,34,13,Spring,34.464309,68.848882
Capital,4,Wardak,406,Chak,2016-05-03,Flood / flash flood,0,0,222,44,22,21,Spring,34.085404,68.516192
Capital,4,Wardak,407,Saydabad,2016-05-03,Flood / flash flood,0,0,236,43,43,0,Spring,33.934723,68.676363
Western,21,Ghor,2101,Chaghcharan,2016-05-03,Flood / flash flood,0,0,165,23,17,6,Spring,34.524334,65.238265
Capital,4,Wardak,403,Nerkh,2016-05-03,Flood / flash flood,0,0,82,15,11,4,Spring,34.326461,68.771485
Capital,1,Kabul,101,Kabul,2016-05-03,Flood / flash flood,1,0,672,96,48,48,Spring,34.527913,69.169074
Central Highland,10,Bamyan,1004,Panjab,2016-05-04,Flood / flash flood,0,0,770,52,5,47,Spring,34.38689,66.930673
Central Highland,10,Bamyan,1003,Yakawlang,2016-05-04,Flood / flash flood,0,0,55,7,0,7,Spring,35.039948,66.994871
Central Highland,10,Bamyan,1007,Waras,2016-05-04,Flood / flash flood,0,0,878,108,48,60,Spring,34.163208,66.930112
North Eastern,15,Badakhshan,1510,Darayem,2016-05-09,Flood / flash flood,5,0,1909,404,53,37,Spring,36.892505,70.412044
Northern,19,Samangan,1906,Khuram Wa Sarbagh,2016-05-10,Flood / flash flood,0,0,129,36,35,1,Spring,35.946376,68.057426
Northern,19,Samangan,1907,Ruy-e-Duab,2016-05-10,Flood / flash flood,1,0,383,100,86,14,Spring,35.611123,67.76801
Northern,19,Samangan,1905,Dara-e Suf-e-Bala,2016-05-10,Flood / flash flood,1,0,712,97,82,15,Spring,35.607098,67.254314
North Eastern,15,Badakhshan,1519,Tagab,2016-05-10,Flood / flash flood,1,1,1708,244,144,100,Spring,36.479764,70.341949
North Eastern,15,Badakhshan,1512,Baharak,2016-05-10,Flood / flash flood,0,0,66,13,0,2,Spring,37.017329,70.910623
North Eastern,9,Baghlan,907,Khenjan,2016-05-11,Flood / flash flood,0,0,128,35,24,11,Spring,35.453058,68.986856
Eastern,13,Kunar,1311,Barkunar,2016-05-11,Flood / flash flood,0,0,28,4,0,4,Spring,35.062438,71.392415
North Eastern,15,Badakhshan,1527,Zebak,2016-05-11,Flood / flash flood,0,0,100,15,15,0,Spring,36.361303,71.272312
North Eastern,15,Badakhshan,1513,Shuhada,2016-05-11,Flood / flash flood,0,0,1948,215,174,32,Spring,37.061091,71.185928
North Eastern,9,Baghlan,903,Dahana-e-Ghori,2016-05-11,Flood / flash flood,0,0,525,75,16,59,Spring,35.819115,68.42162
North Eastern,9,Baghlan,913,Khost Wa Fereng,2016-05-11,Flood / flash flood,0,0,314,80,67,13,Spring,35.983007,69.526947
Western,21,Ghor,2101,Chaghcharan,2016-05-11,Flood / flash flood,0,0,29,3,0,3,Spring,34.524334,65.238265
North Eastern,9,Baghlan,911,Pul-e- Hesar,2016-05-11,Flood / flash flood,0,0,9,2,2,0,Spring,35.58662,69.535737
North Eastern,15,Badakhshan,1512,Baharak,2016-05-11,Flood / flash flood,1,0,1804,381,30,17,Spring,37.017329,70.910623
North Eastern,15,Badakhshan,1519,Tagab,2016-05-11,Flood / flash flood,1,0,469,83,38,45,Spring,36.479764,70.341949
North Eastern,15,Badakhshan,1512,Baharak,2016-05-12,Flood / flash flood,0,0,478,92,28,1,Spring,37.017329,70.910623
Northern,20,Sar-e-Pul,2007,Sangcharak,2016-05-12,Flood / flash flood,0,0,49,7,3,4,Spring,35.961749,66.369244
North Eastern,15,Badakhshan,1527,Zebak,2016-05-12,Flood / flash flood,0,0,124,13,5,0,Spring,36.361303,71.272312
North Eastern,15,Badakhshan,1515,Darwaz-e-Balla,2016-05-12,Flood / flash flood,0,0,34,4,4,0,Spring,38.444539,70.796354
North Eastern,15,Badakhshan,1504,Arghanjkhwa,2016-05-12,Flood / flash flood,0,0,323,54,0,23,Spring,37.366577,70.970672
North Eastern,15,Badakhshan,1514,Shighnan,2016-05-12,Flood / flash flood,0,0,36,5,0,0,Spring,37.60885,71.366023
Northern,19,Samangan,1906,Khuram Wa Sarbagh,2016-05-13,Flood / flash flood,0,0,109,27,27,0,Spring,35.946376,68.057426
North Eastern,15,Badakhshan,1512,Baharak,2016-05-13,Flood / flash flood,0,0,479,218,14,10,Spring,37.017329,70.910623
North Eastern,15,Badakhshan,1509,Teshkan,2016-05-13,Flood / flash flood,0,0,1889,385,344,41,Spring,36.800862,70.366348
North Eastern,9,Baghlan,912,Dehsalah,2016-05-14,Flood / flash flood,1,0,152,38,34,4,Spring,35.763124,69.309796
Eastern,13,Kunar,1301,Asadabad,2016-05-14,Flood / flash flood,0,0,98,14,14,0,Spring,34.859883,71.117064
Central Highland,10,Bamyan,1001,Bamyan,2016-05-14,Flood / flash flood,0,0,6,1,1,0,Spring,34.755695,67.640391
North Eastern,15,Badakhshan,1513,Shuhada,2016-05-14,Flood / flash flood,0,0,670,99,68,0,Spring,37.061091,71.185928
North Eastern,15,Badakhshan,1507,Yawan,2016-05-15,Landslide / mudflow,0,0,826,118,0,85,Spring,37.514601,70.388243
North Eastern,15,Badakhshan,1513,Shuhada,2016-05-15,Flood / flash flood,0,0,529,78,55,0,Spring,37.061091,71.185928
Central Highland,10,Bamyan,1003,Yakawlang,2016-05-15,Flood / flash flood,0,0,188,22,7,15,Spring,35.039948,66.994871
Northern,20,Sar-e-Pul,2006,Balkhab,2016-05-15,Flood / flash flood,0,0,1108,156,92,64,Spring,35.484525,66.58343
North Eastern,15,Badakhshan,1513,Shuhada,2016-05-16,Flood / flash flood,0,0,447,65,45,0,Spring,37.061091,71.185928
Northern,20,Sar-e-Pul,2003,Kohestanat,2016-05-18,Flood / flash flood,21,21,670,95,0,95,Spring,35.406159,65.963338
North Eastern,15,Badakhshan,1518,Keshem,2016-05-18,Flood / flash flood,0,0,335,58,6,10,Spring,36.74831,70.12736
Central Highland,10,Bamyan,1006,Kahmard,2016-06-03,Flood / flash flood,0,0,86,13,4,9,Summer,35.340373,67.749258
Central Highland,10,Bamyan,1002,Sayghan,2016-06-03,Flood / flash flood,1,0,15,2,1,1,Summer,35.124416,67.624207
North Eastern,15,Badakhshan,1519,Tagab,2016-06-03,Flood / flash flood,0,0,1220,231,60,154,Summer,36.479764,70.341949
North Eastern,9,Baghlan,901,Pul-e-Khumri,2016-06-06,Landslide / mudflow,4,5,9,1,0,1,Summer,36.011946,68.636293
North Eastern,16,Takhar,1608,Kalafgan,2016-06-11,Flood / flash flood,0,0,126,19,5,14,Summer,36.780002,69.908015
Eastern,6,Nangarhar,616,Goshta,2016-06-16,Flood / flash flood,0,0,259,37,17,0,Summer,34.455504,70.877188
South Eastern,26,Khost,2601,Khost (Matun),2016-07-02,Flood / flash flood,0,0,55,5,1,5,Summer,33.337571,69.91725
North Eastern,9,Baghlan,906,Tala Wa Barfak,2016-07-02,Flood / flash flood,0,0,385,55,0,55,Summer,35.238661,68.342849
Eastern,13,Kunar,1301,Asadabad,2016-07-16,Flood / flash flood,0,0,1673,251,190,61,Summer,34.859883,71.117064
Eastern,13,Kunar,1302,Watapur,2016-07-16,Flood / flash flood,0,0,42,6,4,2,Summer,34.972029,71.079464
South Eastern,26,Khost,2602,Sabari,2016-07-17,Flood / flash flood,7,2,49,3,0,0,Summer,33.492199,69.952329
South Eastern,11,Ghazni,1101,Ghazni,2016-07-27,Flood / flash flood,1,0,7,1,0,1,Summer,33.541807,68.441991
Capital,4,Wardak,407,Saydabad,2016-07-28,Flood / flash flood,0,0,434,62,52,10,Summer,33.934723,68.676363
Capital,4,Wardak,406,Chak,2016-07-28,Flood / flash flood,0,0,28,4,2,2,Summer,34.085404,68.516192
South Eastern,26,Khost,2605,Mandozayi,2016-07-30,Earthquake,1,0,98,8,6,2,Summer,33.336522,69.803569
South Eastern,26,Khost,2605,Mandozayi,2016-07-31,Flood / flash flood,1,7,98,14,8,5,Summer,33.336522,69.803569
Eastern,13,Kunar,1302,Watapur,2016-08-14,Flood / flash flood,0,0,9,1,0,0,Summer,34.972029,71.079464
Eastern,13,Kunar,1303,Narang,2016-08-14,Flood / flash flood,0,0,49,7,7,0,Summer,34.817816,71.019069
Eastern,13,Kunar,1309,Khaskunar,2016-08-26,Flood / flash flood,0,0,91,13,13,0,Summer,34.599138,70.919872
Eastern,13,Kunar,1307,Dara-e-Pech,2016-08-26,Flood / flash flood,0,0,98,14,12,0,Summer,34.931473,70.911379
Capital,1,Kabul,102,Dehsabz,2016-08-27,Flood / flash flood,0,0,154,22,22,0,Summer,34.635628,69.325031
Capital,1,Kabul,105,Chaharasyab,2016-08-29,Flood / flash flood,0,0,168,24,24,0,Summer,34.393084,69.08462
Eastern,13,Kunar,1311,Barkunar,2016-08-31,Flood / flash flood,0,0,11,2,0,2,Summer,35.062438,71.392415
Eastern,13,Kunar,1312,Ghaziabad,2016-09-12,Flood / flash flood,0,3,84,12,12,0,Autumn,35.209863,71.320771
Eastern,13,Kunar,1306,Shigal Wa Sheltan,2016-09-12,Flood / flash flood,1,6,21,3,2,1,Autumn,35.019947,71.233756
South Eastern,26,Khost,2601,Khost (Matun),2016-09-21,Flood / flash flood,1,0,112,16,16,0,Autumn,33.337571,69.91725
North Eastern,15,Badakhshan,1502,Yaftal-e-Sufla,2016-10-29,Landslide / mudflow,0,0,168,24,8,8,Autumn,37.29251,70.36165
Eastern,13,Kunar,1305,Marawara,2017-01-04,Flood / flash flood,0,0,10,1,1,0,Winter,34.856211,71.219828
Eastern,13,Kunar,1301,Asadabad,2017-01-04,Flood / flash flood,0,0,56,8,7,1,Winter,34.859883,71.117064
Eastern,13,Kunar,1303,Narang,2017-01-04,Flood / flash flood,0,0,7,1,1,0,Winter,34.817816,71.019069
Eastern,13,Kunar,1314,Nurgal,2017-01-04,Flood / flash flood,0,0,28,4,3,1,Winter,34.700584,70.728239
Eastern,13,Kunar,1304,Sarkani,2017-01-04,Flood / flash flood,0,0,7,1,0,1,Winter,34.705403,71.086416
Southern,32,Hilmand,3201,Lashkargah,2017-01-14,Flood / flash flood,0,0,77,8,5,3,Winter,31.451536,64.522944
Southern,33,Kandahar,3301,Kandahar,2017-01-14,Flood / flash flood,0,0,28,3,3,0,Winter,31.518012,65.697431
Western,31,Farah,3101,Farah,2017-01-15,Flood / flash flood,0,0,119,19,9,0,Winter,32.23408,62.222932
Western,31,Farah,3104,khak-e-Safed,2017-01-16,Flood / flash flood,0,0,0,0,0,0,Winter,32.749551,62.103717
Central Highland,10,Bamyan,1003,Yakawlang,2017-01-17,Landslide / mudflow,0,0,13,2,0,2,Winter,35.039948,66.994871
Southern,24,Zabul,2401,Qalat,2017-01-20,Heavy snowfall,0,0,4025,575,0,0,Winter,32.187366,66.953465
Southern,33,Kandahar,3301,Kandahar,2017-01-22,Flood / flash flood,0,0,164,20,10,10,Winter,31.518012,65.697431
Eastern,6,Nangarhar,603,Surkhrod,2017-01-22,Flood / flash flood,6,4,10,3,0,3,Winter,34.420676,70.317617
Southern,33,Kandahar,3305,Daman,2017-01-23,Flood / flash flood,0,0,62,8,0,8,Winter,31.156011,65.741152
Southern,24,Zabul,2401,Qalat,2017-01-23,Flood / flash flood,0,0,218,33,33,0,Winter,32.187366,66.953465
Eastern,7,Laghman,701,Mehtarlam,2017-01-25,Flood / flash flood,0,0,20,2,2,0,Winter,34.666954,70.071718
Central Highland,10,Bamyan,1001,Bamyan,2017-01-25,Avalanche,0,0,0,0,0,0,Winter,34.755695,67.640391
South Eastern,11,Ghazni,1118,Gelan,2017-01-28,Heavy snowfall,2,0,14,2,0,0,Winter,32.69335,67.670183
Eastern,13,Kunar,1314,Nurgal,2017-01-29,Flood / flash flood,0,0,18,2,2,0,Winter,34.700584,70.728239
Eastern,13,Kunar,1302,Watapur,2017-01-29,Flood / flash flood,0,0,21,3,3,0,Winter,34.972029,71.079464
Northern,28,Faryab,2807,Kohestan,2017-01-29,Heavy snowfall,0,0,0,0,0,0,Winter,35.349423,64.956595
Eastern,13,Kunar,1307,Dara-e-Pech,2017-01-29,Flood / flash flood,0,0,35,5,5,0,Winter,34.931473,70.911379
Eastern,13,Kunar,1301,Asadabad,2017-01-29,Flood / flash flood,0,0,44,6,6,0,Winter,34.859883,71.117064
Western,29,Badghis,2901,Qala-e-Naw,2017-01-30,Avalanche,0,0,32,4,4,0,Winter,34.861003,63.130681
North Eastern,15,Badakhshan,1506,Raghestan,2017-01-30,Avalanche,1,6,56,8,0,2,Winter,37.67991,70.64017
Western,21,Ghor,2108,Lal Wa Sarjangal,2017-02-02,Avalanche,1,0,7,1,0,1,Winter,34.567173,66.208738
Western,21,Ghor,2101,Chaghcharan,2017-02-02,Heavy snowfall,0,0,0,0,0,0,Winter,34.524334,65.238265
Central Highland,10,Bamyan,1003,Yakawlang,2017-02-02,Avalanche,3,0,3,0,0,0,Winter,35.039948,66.994871
North Eastern,15,Badakhshan,1507,Yawan,2017-02-03,Avalanche,0,0,0,0,0,0,Winter,37.514601,70.388243
Central Highland,22,Daykundi,2203,Khadir,2017-02-03,Avalanche,0,0,0,0,0,0,Winter,33.866089,65.787183
Central Highland,10,Bamyan,1004,Panjab,2017-02-03,Flood / flash flood,0,0,152,22,1,0,Winter,34.38689,66.930673
Central Highland,10,Bamyan,1007,Waras,2017-02-03,Flood / flash flood,0,0,84,12,0,0,Winter,34.163208,66.930112
Southern,32,Hilmand,3211,Baghran,2017-02-03,Avalanche,0,0,0,0,0,0,Winter,33.151625,65.152843
North Eastern,15,Badakhshan,1515,Darwaz-e-Balla,2017-02-03,Avalanche,10,12,371,53,10,15,Winter,38.444539,70.796354
Western,21,Ghor,2101,Chaghcharan,2017-02-04,Heavy snowfall,0,0,0,0,0,0,Winter,34.524334,65.238265
Western,21,Ghor,2101,Chaghcharan,2017-02-04,Avalanche,0,0,0,0,0,0,Winter,34.524334,65.238265
Eastern,7,Laghman,702,Alishang,2017-02-04,Flood / flash flood,0,0,31,5,5,0,Winter,34.866429,70.072183
South Eastern,26,Khost,2601,Khost (Matun),2017-02-04,Flood / flash flood,1,2,287,41,34,7,Winter,33.337571,69.91725
Western,21,Ghor,2104,Dawlatyar,2017-02-04,Heavy snowfall,0,0,0,0,0,0,Winter,34.622616,65.789997
Southern,33,Kandahar,3308,Maywand,2017-02-04,Flood / flash flood,0,0,382,49,49,0,Winter,31.56697,64.93499
Eastern,6,Nangarhar,603,Surkhrod,2017-02-04,Flood / flash flood,0,0,19,3,3,0,Winter,34.420676,70.317617
Western,21,Ghor,2109,Tolak,2017-02-04,Heavy snowfall,0,0,0,0,0,0,Winter,34.003325,63.675799
Eastern,6,Nangarhar,618,Shinwar,2017-02-04,Flood / flash flood,1,6,49,6,4,2,Winter,34.205904,70.816901
South Eastern,11,Ghazni,1101,Ghazni,2017-02-04,Heavy snowfall,0,0,70,10,25,2,Winter,33.541807,68.441991
Western,31,Farah,3108,Lash-e-Juwayn,2017-02-04,Heavy snowfall,0,0,0,0,0,0,Winter,31.758847,61.322829
Eastern,6,Nangarhar,606,Rodat,2017-02-04,Flood / flash flood,0,3,330,44,38,6,Winter,34.256662,70.550781
Western,21,Ghor,2110,Saghar,2017-02-04,Avalanche,0,0,0,0,0,0,Winter,33.663899,63.743686
Eastern,13,Kunar,1305,Marawara,2017-02-04,Flood / flash flood,0,0,69,10,9,0,Winter,34.856211,71.219828
Eastern,13,Kunar,1310,Dangam,2017-02-04,Flood / flash flood,0,0,79,14,12,2,Winter,35.015631,71.446189
Eastern,13,Kunar,1302,Watapur,2017-02-04,Flood / flash flood,0,0,48,8,8,0,Winter,34.972029,71.079464
Eastern,6,Nangarhar,612,Pachieragam,2017-02-04,Flood / flash flood,0,0,41,6,4,2,Winter,34.077161,70.302235
Eastern,13,Kunar,1303,Narang,2017-02-04,Flood / flash flood,0,0,49,7,6,1,Winter,34.817816,71.019069
Eastern,13,Kunar,1306,Shigal Wa Sheltan,2017-02-04,Flood / flash flood,0,2,174,21,16,2,Winter,35.019947,71.233756
Southern,33,Kandahar,3311,Spinboldak,2017-02-04,Flood / flash flood,0,0,93,13,13,0,Winter,30.952222,66.135407
South Eastern,12,Paktya,1201,Gardez,2017-02-04,Heavy snowfall,0,0,77,11,0,11,Winter,33.599864,69.229343
Eastern,7,Laghman,705,Dawlatshah,2017-02-04,Flood / flash flood,0,0,200,32,32,0,Winter,35.03591,70.00979
Central Highland,22,Daykundi,2206,Shahrestan,2017-02-04,Avalanche,0,0,0,0,0,0,Winter,33.694575,66.480494
Eastern,13,Kunar,1312,Ghaziabad,2017-02-04,Flood / flash flood,0,0,84,13,13,0,Winter,35.209863,71.320771
Eastern,6,Nangarhar,617,Achin,2017-02-04,Flood / flash flood,0,0,30,5,4,1,Winter,34.056653,70.650371
Southern,32,Hilmand,3201,Lashkargah,2017-02-04,Flood / flash flood,0,0,169,21,21,0,Winter,31.451536,64.522944
Southern,33,Kandahar,3301,Kandahar,2017-02-04,Flood / flash flood,0,0,150,31,0,31,Winter,31.518012,65.697431
Central Highland,22,Daykundi,2209,Miramor,2017-02-04,Avalanche,0,0,14,2,0,0,Winter,33.826512,66.987777
Eastern,6,Nangarhar,613,Dehbala,2017-02-04,Flood / flash flood,0,0,204,30,29,1,Winter,34.092342,70.449203
Eastern,13,Kunar,1314,Nurgal,2017-02-04,Flood / flash flood,0,0,47,9,6,0,Winter,34.700584,70.728239
South Eastern,26,Khost,2605,Mandozayi,2017-02-04,Flood / flash flood,0,0,70,10,2,8,Winter,33.336522,69.803569
Eastern,6,Nangarhar,610,Hesarak,2017-02-04,Heavy snowfall,0,0,245,32,32,0,Winter,34.24617,69.743543
South Eastern,25,Paktika,2514,Wormamay,2017-02-04,Heavy snowfall,4,12,210,30,0,30,Winter,31.962904,68.809059
Eastern,13,Kunar,1315,Nari,2017-02-04,Flood / flash flood,0,0,140,21,20,1,Winter,35.177373,71.508298
Eastern,7,Laghman,701,Mehtarlam,2017-02-04,Flood / flash flood,0,0,129,20,15,5,Winter,34.666954,70.071718
Western,21,Ghor,2107,Pasaband,2017-02-04,Heavy snowfall,0,0,0,0,0,0,Winter,33.687137,65.132795
Eastern,6,Nangarhar,604,Khogyani,2017-02-04,Flood / flash flood,0,0,33,6,6,0,Winter,34.446776,70.68128
Eastern,13,Kunar,1304,Sarkani,2017-02-04,Flood / flash flood,0,0,28,4,3,3,Winter,34.705403,71.086416
South Eastern,12,Paktya,1206,Zadran,2017-02-04,Heavy snowfall,0,0,77,11,8,11,Winter,33.416216,69.424522
Northern,18,Balkh,1802,Nahr-e-Shahi,2017-02-04,Flood / flash flood,0,0,0,0,3,0,Winter,36.827572,67.23353
Western,29,Badghis,2903,Abkamari,2017-02-04,Heavy snowfall,3,1,7,1,0,1,Winter,35.013638,62.966459
Eastern,6,Nangarhar,602,Behsud,2017-02-04,Flood / flash flood,0,1,21,3,3,0,Winter,34.423905,70.520494
Eastern,13,Kunar,1313,Chapadara,2017-02-04,Flood / flash flood,0,0,644,92,92,0,Winter,34.901138,70.700645
South Eastern,25,Paktika,2513,Wazakhah,2017-02-04,Heavy snowfall,0,0,126,18,0,18,Winter,32.22365,68.2772
Eastern,13,Kunar,1308,Chawkay,2017-02-04,Flood / flash flood,0,0,55,9,8,1,Winter,34.745481,70.862733
Western,30,Hirat,3005,Guzara,2017-02-04,Flood / flash flood,0,0,35,5,3,2,Winter,34.040952,62.013878
South Eastern,12,Paktya,1211,Dand Wa Patan,2017-02-04,Heavy snowfall,0,0,168,24,0,24,Winter,33.809267,69.901955
South Eastern,26,Khost,2606,Tani,2017-02-04,Flood / flash flood,0,0,35,5,0,5,Winter,33.204652,69.735546
Western,21,Ghor,2106,Taywarah,2017-02-04,Heavy snowfall,0,0,0,0,0,0,Winter,33.514124,64.40105
South Eastern,25,Paktika,2519,Turwo (Tarwe),2017-02-04,Heavy snowfall,0,9,140,20,0,20,Winter,31.886466,68.405391
South Eastern,26,Khost,2607,Gurbuz,2017-02-04,Flood / flash flood,3,3,7,1,0,1,Winter,33.205471,69.920756
Eastern,13,Kunar,1311,Barkunar,2017-02-04,Flood / flash flood,0,1,86,16,12,2,Winter,35.062438,71.392415
Eastern,13,Kunar,1307,Dara-e-Pech,2017-02-04,Flood / flash flood,0,2,296,40,38,2,Winter,34.931473,70.911379
Capital,3,Parwan,304,Bagram,2017-02-04,Heavy snowfall,0,0,56,8,5,3,Winter,34.905671,69.377716
Capital,3,Parwan,305,Saydkhel,2017-02-04,Heavy snowfall,0,0,56,8,4,4,Winter,35.04724,69.282208
Western,30,Hirat,3010,Adraskan,2017-02-04,Flood / flash flood,3,0,21,3,0,0,Winter,33.72015,61.816468
Eastern,7,Laghman,704,Alingar,2017-02-04,Flood / flash flood,0,0,154,23,20,3,Winter,34.833038,70.425705
South Eastern,12,Paktya,1209,Janikhel,2017-02-04,Heavy snowfall,0,0,182,26,0,26,Winter,33.62669,69.833488
Capital,2,Kapisa,201,Mahmud-e-Raqi,2017-02-04,Heavy snowfall,0,0,210,30,30,0,Winter,35.01233,69.382066
South Eastern,11,Ghazni,1113,Jaghuri,2017-02-04,Heavy snowfall,5,0,63,9,2,2,Winter,33.09056,67.505361
Eastern,6,Nangarhar,611,Sherzad,2017-02-04,Flood / flash flood,0,0,7,1,1,0,Winter,34.181064,69.928431
South Eastern,12,Paktya,1207,Lija Ahmad Khel,2017-02-04,Heavy snowfall,0,0,77,11,5,11,Winter,33.797792,69.605362
Capital,3,Parwan,309,Shekhali,2017-02-04,Heavy snowfall,0,0,128,15,12,3,Winter,34.961071,68.393194
Capital,2,Kapisa,204,Hisa-e-Duwum-e-Kohestan,2017-02-04,Heavy snowfall,0,0,252,36,36,0,Winter,35.069169,69.328034
Eastern,7,Laghman,703,Qarghayi,2017-02-04,Flood / flash flood,3,2,15,2,1,1,Winter,34.543504,70.214523
Western,31,Farah,3107,Shibkoh,2017-02-04,Heavy snowfall,0,0,0,0,0,0,Winter,32.139109,61.359457
Central Highland,22,Daykundi,2207,Sang-e-Takht,2017-02-04,Avalanche,0,0,0,0,0,0,Winter,34.178306,65.86074
Capital,3,Parwan,310,Surkh-e- Parsa,2017-02-04,Heavy snowfall,0,0,603,93,33,10,Winter,34.742986,68.643355
Capital,2,Kapisa,203,Kohband,2017-02-04,Heavy snowfall,0,0,140,20,20,0,Winter,35.110987,69.460654
Eastern,6,Nangarhar,601,Jalalabad,2017-02-04,Flood / flash flood,0,0,31,4,4,0,Winter,34.419822,70.436525
Western,30,Hirat,3012,Obe,2017-02-04,Flood / flash flood,0,0,42,6,2,4,Winter,34.380977,63.292026
South Eastern,25,Paktika,2518,Dila,2017-02-04,Heavy snowfall,0,11,175,25,0,25,Winter,32.617663,68.123294
South Eastern,12,Paktya,1202,Sayedkaram,2017-02-04,Heavy snowfall,0,0,7,1,0,1,Winter,33.731336,69.469893
Capital,3,Parwan,301,Charikar,2017-02-04,Heavy snowfall,0,0,119,17,11,6,Winter,34.955632,69.120882
Eastern,13,Kunar,1301,Asadabad,2017-02-04,Flood / flash flood,0,0,119,17,13,0,Winter,34.859883,71.117064
South Eastern,12,Paktya,1208,Alikhel (Jaji),2017-02-04,Heavy snowfall,0,0,147,21,0,21,Winter,33.954034,69.697367
Eastern,13,Kunar,1309,Khaskunar,2017-02-04,Flood / flash flood,0,0,21,3,3,0,Winter,34.599138,70.919872
Western,21,Ghor,2108,Lal Wa Sarjangal,2017-02-04,Heavy snowfall,0,0,0,0,0,0,Winter,34.567173,66.208738
South Eastern,12,Paktya,1210,Chamkani,2017-02-04,Heavy snowfall,0,0,70,10,0,10,Winter,33.793514,69.791159
Southern,33,Kandahar,3305,Daman,2017-02-04,Flood / flash flood,0,0,219,31,0,0,Winter,31.156011,65.741152
Eastern,6,Nangarhar,605,Chaparhar,2017-02-04,Flood / flash flood,0,0,14,2,0,2,Winter,34.298027,70.367422
Capital,3,Parwan,307,Ghorband,2017-02-04,Heavy snowfall,0,0,77,11,11,0,Winter,34.987058,68.799341
Northern,28,Faryab,2809,Bilcheragh,2017-02-05,Heavy snowfall,0,0,0,0,0,0,Winter,35.876337,65.398609
Northern,28,Faryab,2803,Pashtunkot,2017-02-05,Heavy snowfall,0,0,0,0,0,0,Winter,35.838939,64.782672
Eastern,13,Kunar,1307,Dara-e-Pech,2017-02-05,Flood / flash flood,0,0,170,25,25,0,Winter,34.931473,70.911379
Eastern,14,Nuristan,1405,Wama,2017-02-05,Heavy snowfall,0,0,119,17,17,0,Winter,35.107368,70.719288
Eastern,14,Nuristan,1408,Barg-e- Matal,2017-02-05,Avalanche,52,25,532,76,0,18,Winter,35.756716,71.229678
Eastern,14,Nuristan,1402,Mandol,2017-02-05,Heavy snowfall,0,0,0,0,0,0,Winter,35.385321,70.208195
Eastern,14,Nuristan,1401,Poruns,2017-02-05,Avalanche,0,4,182,26,26,0,Winter,35.421264,70.787779
Eastern,14,Nuristan,1406,Waygal,2017-02-05,Heavy snowfall,0,0,98,14,14,0,Winter,35.181413,70.997138
Central Highland,22,Daykundi,2204,kiti,2017-02-05,Heavy snowfall,0,0,14,2,0,2,Winter,33.53046,65.74766
Eastern,13,Kunar,1301,Asadabad,2017-02-05,Flood / flash flood,0,0,106,15,15,0,Winter,34.859883,71.117064
Central Highland,10,Bamyan,1004,Panjab,2017-02-05,Avalanche,0,0,7,1,0,1,Winter,34.38689,66.930673
Northern,28,Faryab,2801,Maymana,2017-02-06,Landslide / mudflow,0,0,14,2,4,2,Winter,35.901683,64.758825
Western,29,Badghis,2904,Qadis,2017-02-06,Heavy snowfall,4,0,7,1,0,1,Winter,34.798054,63.578057
Northern,28,Faryab,2801,Maymana,2017-02-06,Heavy snowfall,0,0,189,27,0,27,Winter,35.901683,64.758825
Western,29,Badghis,2902,Muqur,2017-02-06,Heavy snowfall,1,0,7,1,1,0,Winter,35.108166,63.260315
Central Highland,22,Daykundi,2203,Khadir,2017-02-06,Flood / flash flood,0,0,0,0,0,0,Winter,33.866089,65.787183
Capital,1,Kabul,101,Kabul,2017-02-07,Heavy snowfall,0,0,126,18,18,0,Winter,34.527913,69.169074
North Eastern,9,Baghlan,907,Khenjan,2017-02-07,Heavy snowfall,0,0,14,2,0,2,Winter,35.453058,68.986856
North Eastern,9,Baghlan,901,Pul-e-Khumri,2017-02-07,Heavy snowfall,0,0,14,2,0,2,Winter,36.011946,68.636293
Western,21,Ghor,2101,Chaghcharan,2017-02-07,Heavy snowfall,0,0,0,0,0,0,Winter,34.524334,65.238265
North Eastern,9,Baghlan,902,Baghlan-e-Jadid,2017-02-07,Heavy snowfall,0,0,7,1,0,1,Winter,36.297339,68.720497
Capital,1,Kabul,102,Dehsabz,2017-02-08,Heavy snowfall,0,0,42,6,4,2,Winter,34.635628,69.325031
Capital,1,Kabul,113,Surobi,2017-02-08,Heavy snowfall,0,0,28,4,2,2,Winter,34.63319,69.710301
Capital,1,Kabul,103,Shakardara,2017-02-08,Heavy snowfall,0,0,14,2,2,0,Winter,34.66827,69.06244
Capital,1,Kabul,101,Kabul,2017-02-08,Heavy snowfall,1,0,441,63,55,8,Winter,34.527913,69.169074
Central Highland,22,Daykundi,2204,kiti,2017-02-08,Heavy snowfall,0,0,21,3,2,1,Winter,33.53046,65.74766
Central Highland,22,Daykundi,2204,kiti,2017-02-08,Avalanche,0,0,0,0,0,0,Winter,33.53046,65.74766
Capital,1,Kabul,107,Bagrami,2017-02-08,Heavy snowfall,7,0,28,4,2,2,Winter,34.48912,69.305418
Capital,1,Kabul,104,Paghman,2017-02-08,Heavy snowfall,3,0,119,18,9,4,Winter,34.541028,68.946488
Western,30,Hirat,3016,Chisht-e-Sharif,2017-02-08,Heavy snowfall,0,0,0,0,0,0,Winter,34.372017,63.768442
Central Highland,22,Daykundi,2204,kiti,2017-02-09,Heavy snowfall,0,0,35,5,2,3,Winter,33.53046,65.74766
Capital,2,Kapisa,202,Nejrab,2017-02-10,Flood / flash flood,0,0,7,1,0,0,Winter,35.041318,69.632485
Western,29,Badghis,2901,Qala-e-Naw,2017-02-10,Flood / flash flood,0,0,56,8,8,56,Winter,34.861003,63.130681
Capital,2,Kapisa,203,Kohband,2017-02-10,Flood / flash flood,0,0,14,2,0,0,Winter,35.110987,69.460654
Capital,2,Kapisa,207,Hisa-e- Awal-e- Kohestan,2017-02-10,Flood / flash flood,0,0,126,18,0,0,Winter,35.135942,69.334935
Capital,2,Kapisa,201,Mahmud-e-Raqi,2017-02-10,Flood / flash flood,0,0,133,19,0,0,Winter,35.01233,69.382066
Central Highland,22,Daykundi,2204,kiti,2017-02-10,Heavy snowfall,0,0,28,4,4,0,Winter,33.53046,65.74766
Capital,2,Kapisa,204,Hisa-e-Duwum-e-Kohestan,2017-02-10,Flood / flash flood,0,0,259,37,0,0,Winter,35.069169,69.328034
Northern,18,Balkh,1801,Mazar-e-Sharif,2017-02-11,Flood / flash flood,0,0,0,0,7,0,Winter,36.703226,67.112903
North Eastern,15,Badakhshan,1507,Yawan,2017-02-12,Avalanche,0,2,2,0,0,0,Winter,37.514601,70.388243
Central Highland,10,Bamyan,1003,Yakawlang,2017-02-13,Avalanche,1,1,6,1,0,2,Winter,35.039948,66.994871
Northern,27,Jawzjan,2701,Shiberghan,2017-02-14,Heavy snowfall,0,0,0,152,152,0,Winter,36.626436,65.77841
Central Highland,22,Daykundi,2209,Miramor,2017-02-14,Heavy snowfall,0,0,0,0,0,0,Winter,33.826512,66.987777
Western,29,Badghis,2901,Qala-e-Naw,2017-02-15,Flood / flash flood,0,0,63,9,9,0,Winter,34.861003,63.130681
Southern,34,Nimroz,3405,Khashrod,2017-02-15,Flood / flash flood,0,0,782,111,111,0,Winter,31.725304,62.939043
Southern,34,Nimroz,3404,Chakhansur,2017-02-15,Flood / flash flood,0,0,1980,264,264,0,Winter,31.375184,62.486654
Western,30,Hirat,3003,Kushk,2017-02-15,Flood / flash flood,0,0,0,0,0,0,Winter,35.013721,62.201428
Western,21,Ghor,2108,Lal Wa Sarjangal,2017-02-15,Heavy snowfall,0,0,30,4,0,4,Winter,34.567173,66.208738
Eastern,6,Nangarhar,604,Khogyani,2017-02-15,Flood / flash flood,2,3,17,2,0,2,Winter,34.446776,70.68128
North Eastern,15,Badakhshan,1514,Shighnan,2017-02-16,Avalanche,1,2,3,0,0,0,Winter,37.60885,71.366023
Central Highland,22,Daykundi,2206,Shahrestan,2017-02-17,Heavy snowfall,0,0,0,0,0,0,Winter,33.694575,66.480494
North Eastern,15,Badakhshan,1505,Kohestan,2017-02-17,Avalanche,3,4,7,0,0,0,Winter,37.410686,70.662149
Northern,28,Faryab,2810,Dawlatabad,2017-02-18,Heavy snowfall,0,0,0,0,0,0,Winter,36.522791,65.061929
Northern,18,Balkh,1806,Dehdadi,2017-02-18,Heavy snowfall,0,0,0,0,1,0,Winter,36.643033,67.021264
Northern,28,Faryab,2812,Qaramqol,2017-02-18,Heavy snowfall,1,2,21,3,0,0,Winter,36.779611,64.974495
Northern,18,Balkh,1815,Keshendeh,2017-02-18,Heavy snowfall,0,0,1827,261,261,0,Winter,35.926279,66.929505
Northern,28,Faryab,2808,Garziwan,2017-02-18,Heavy snowfall,0,0,0,0,0,0,Winter,35.621253,65.320886
Western,30,Hirat,3010,Adraskan,2017-02-18,Flood / flash flood,0,0,434,62,62,0,Winter,33.72015,61.816468
Central Highland,22,Daykundi,2204,kiti,2017-02-18,Flood / flash flood,0,0,27,5,8,5,Winter,33.53046,65.74766
Northern,28,Faryab,2811,Andkhoy,2017-02-18,Heavy snowfall,2,0,434,62,62,62,Winter,36.840891,65.290103
Western,30,Hirat,3014,Kohsan,2017-02-18,Flood / flash flood,2,0,392,56,45,11,Winter,34.771748,61.249098
Northern,28,Faryab,2802,Khwajasabzposh,2017-02-18,Heavy snowfall,0,0,0,0,0,0,Winter,36.046785,64.973365
Western,30,Hirat,3005,Guzara,2017-02-18,Flood / flash flood,0,0,1709,244,52,192,Winter,34.040952,62.013878
Northern,28,Faryab,2809,Bilcheragh,2017-02-18,Heavy snowfall,0,0,0,0,0,0,Winter,35.876337,65.398609
Central Highland,22,Daykundi,2203,Khadir,2017-02-18,Heavy snowfall,0,0,0,0,0,0,Winter,33.866089,65.787183
Western,30,Hirat,3002,Injil,2017-02-18,Flood / flash flood,0,0,14,2,2,0,Winter,34.411669,62.207729
Central Highland,22,Daykundi,2204,kiti,2017-02-18,Heavy snowfall,0,0,70,10,3,7,Winter,33.53046,65.74766
Northern,28,Faryab,2803,Pashtunkot,2017-02-18,Heavy snowfall,0,0,0,0,0,0,Winter,35.838939,64.782672
Northern,18,Balkh,1801,Mazar-e-Sharif,2017-02-18,Heavy snowfall,0,0,357,51,53,0,Winter,36.703226,67.112903
Northern,28,Faryab,2807,Kohestan,2017-02-18,Heavy snowfall,0,0,0,0,0,0,Winter,35.349423,64.956595
Northern,28,Faryab,2801,Maymana,2017-02-18,Heavy snowfall,0,0,0,0,0,0,Winter,35.901683,64.758825
Western,30,Hirat,3007,Karukh,2017-02-18,Flood / flash flood,0,0,14,2,2,0,Winter,34.483692,62.656587
Central Highland,22,Daykundi,2209,Miramor,2017-02-18,Heavy snowfall,0,0,28,4,3,1,Winter,33.826512,66.987777
Western,29,Badghis,2902,Muqur,2017-02-18,Heavy snowfall,0,0,0,0,0,0,Winter,35.108166,63.260315
Central Highland,22,Daykundi,2209,Miramor,2017-02-18,Flood / flash flood,0,0,0,0,0,0,Winter,33.826512,66.987777
Western,30,Hirat,3006,Pashtunzarghun,2017-02-18,Flood / flash flood,0,0,126,18,18,0,Winter,34.13202,62.728806
Central Highland,22,Daykundi,2201,Nili,2017-02-18,Heavy snowfall,0,0,28,4,3,1,Winter,33.741085,66.078538
Eastern,13,Kunar,1314,Nurgal,2017-02-19,Flood / flash flood,0,0,10,1,1,0,Winter,34.700584,70.728239
Eastern,13,Kunar,1315,Nari,2017-02-19,Flood / flash flood,0,0,21,3,3,0,Winter,35.177373,71.508298
North Eastern,15,Badakhshan,1515,Darwaz-e-Balla,2017-02-19,Avalanche,0,0,193,28,28,0,Winter,38.444539,70.796354
Eastern,13,Kunar,1302,Watapur,2017-02-19,Flood / flash flood,0,0,28,4,4,0,Winter,34.972029,71.079464
Eastern,13,Kunar,1307,Dara-e-Pech,2017-02-19,Flood / flash flood,0,0,109,16,16,0,Winter,34.931473,70.911379
Capital,3,Parwan,305,Saydkhel,2017-02-19,Flood / flash flood,0,0,13,2,1,1,Winter,35.04724,69.282208
Capital,3,Parwan,303,Shinwari,2017-02-19,Flood / flash flood,0,0,7,1,2,1,Winter,35.135028,68.973098
Eastern,13,Kunar,1311,Barkunar,2017-02-19,Flood / flash flood,0,0,21,3,2,1,Winter,35.062438,71.392415
Eastern,13,Kunar,1310,Dangam,2017-02-19,Flood / flash flood,0,0,42,6,6,0,Winter,35.015631,71.446189
Eastern,13,Kunar,1306,Shigal Wa Sheltan,2017-02-19,Flood / flash flood,0,0,70,10,7,3,Winter,35.019947,71.233756
North Eastern,17,Kunduz,1702,Emamsaheb,2017-02-19,Heavy snowfall,2,2,7,1,0,1,Winter,37.074314,68.851102
Western,21,Ghor,2105,Shahrak,2017-02-19,Heavy snowfall,0,0,0,0,0,0,Winter,34.225392,64.289289
Southern,24,Zabul,2401,Qalat,2017-02-19,Flood / flash flood,0,0,237,25,22,3,Winter,32.187366,66.953465
Capital,3,Parwan,301,Charikar,2017-02-19,Flood / flash flood,0,0,24,3,0,3,Winter,34.955632,69.120882
Northern,27,Jawzjan,2701,Shiberghan,2017-02-19,Heavy snowfall,0,0,0,71,71,0,Winter,36.626436,65.77841
Eastern,13,Kunar,1301,Asadabad,2017-02-19,Flood / flash flood,0,0,34,4,4,0,Winter,34.859883,71.117064
Eastern,13,Kunar,1305,Marawara,2017-02-19,Flood / flash flood,0,0,18,2,2,0,Winter,34.856211,71.219828
Northern,18,Balkh,1801,Mazar-e-Sharif,2017-02-20,Heavy snowfall,0,0,0,0,23,0,Winter,36.703226,67.112903
North Eastern,15,Badakhshan,1512,Baharak,2017-02-20,Flood / flash flood,0,0,86,18,18,0,Winter,37.017329,70.910623
Southern,33,Kandahar,3301,Kandahar,2017-02-20,Flood / flash flood,1,0,37,5,5,0,Winter,31.518012,65.697431
South Eastern,26,Khost,2606,Tani,2017-02-22,Flood / flash flood,0,0,77,11,11,0,Winter,33.204652,69.735546
South Eastern,26,Khost,2601,Khost (Matun),2017-02-22,Flood / flash flood,0,0,140,20,20,0,Winter,33.337571,69.91725
South Eastern,26,Khost,2605,Mandozayi,2017-02-22,Flood / flash flood,0,0,77,11,11,0,Winter,33.336522,69.803569
Central Highland,10,Bamyan,1001,Bamyan,2017-02-23,Avalanche,0,0,5,1,1,0,Winter,34.755695,67.640391
Central Highland,10,Bamyan,1003,Yakawlang,2017-02-26,Avalanche,0,0,0,0,0,0,Winter,35.039948,66.994871
North Eastern,15,Badakhshan,1512,Baharak,2017-02-27,Flood / flash flood,0,0,90,15,15,0,Winter,37.017329,70.910623
North Eastern,16,Takhar,1616,Warsaj,2017-02-27,Heavy snowfall,0,0,0,0,0,0,Winter,36.104684,70.158583
Central Highland,10,Bamyan,1003,Yakawlang,2017-02-28,Landslide / mudflow,0,0,0,0,0,0,Winter,35.039948,66.994871
Central Highland,10,Bamyan,1007,Waras,2017-03-04,Heavy snowfall,0,0,0,0,0,0,Spring,34.163208,66.930112
North Eastern,15,Badakhshan,1508,Shahr-e-Buzorg,2017-03-12,Avalanche,0,0,0,0,0,0,Spring,37.315953,70.144747
North Eastern,15,Badakhshan,1507,Yawan,2017-03-17,Landslide / mudflow,0,0,0,0,0,0,Spring,37.514601,70.388243
North Eastern,15,Badakhshan,1507,Yawan,2017-03-17,Flood / flash flood,0,0,0,0,0,0,Spring,37.514601,70.388243
South Eastern,11,Ghazni,1102,Khwajaumari,2017-03-20,Flood / flash flood,0,0,14,2,2,0,Spring,33.673222,68.41467
South Eastern,11,Ghazni,1107,Zanakhan,2017-03-20,Flood / flash flood,0,0,70,10,6,4,Spring,33.678994,68.648645
South Eastern,11,Ghazni,1103,Walimuhammad-e- Shahid,2017-03-20,Flood / flash flood,0,0,21,3,3,0,Spring,34.176845,70.066329
South Eastern,11,Ghazni,1108,Rashidan,2017-03-20,Flood / flash flood,0,0,7,1,1,0,Spring,33.705739,68.192805
South Eastern,11,Ghazni,1104,Waghaz,2017-03-20,Flood / flash flood,0,0,56,8,7,1,Spring,33.420537,68.226157
South Eastern,11,Ghazni,1110,Qarabagh,2017-03-20,Flood / flash flood,0,0,84,12,12,0,Spring,33.221892,67.999784
South Eastern,11,Ghazni,1111,Giro,2017-03-20,Flood / flash flood,0,0,14,2,2,3,Spring,33.064457,68.373547
South Eastern,26,Khost,2603,Musakhel,2017-03-20,Flood / flash flood,0,0,357,51,11,51,Spring,33.539478,69.68332
Central Highland,10,Bamyan,1007,Waras,2017-03-20,Flood / flash flood,0,0,111,11,1,10,Spring,34.163208,66.930112
South Eastern,11,Ghazni,1106,Dehyak,2017-03-20,Flood / flash flood,0,0,35,5,5,0,Spring,33.483589,68.702913
South Eastern,11,Ghazni,1105,Andar,2017-03-20,Flood / flash flood,0,0,56,8,8,0,Spring,33.296152,68.452393
Western,21,Ghor,2110,Saghar,2017-03-21,Flood / flash flood,0,0,0,0,0,0,Spring,33.663899,63.743686
Western,21,Ghor,2105,Shahrak,2017-03-21,Flood / flash flood,0,0,0,0,0,0,Spring,34.225392,64.289289
Western,21,Ghor,2106,Taywarah,2017-03-21,Flood / flash flood,0,0,0,0,0,0,Spring,33.514124,64.40105
Western,30,Hirat,3001,Hirat,2017-03-21,Flood / flash flood,0,0,347,49,40,9,Spring,34.395992,62.231053
Western,31,Farah,3111,Anardara,2017-03-21,Flood / flash flood,0,0,0,0,0,0,Spring,32.708645,61.606863
Western,30,Hirat,3010,Adraskan,2017-03-21,Flood / flash flood,0,0,0,0,0,0,Spring,33.72015,61.816468
Western,30,Hirat,3005,Guzara,2017-03-21,Flood / flash flood,0,0,0,0,0,0,Spring,34.040952,62.013878
Western,30,Hirat,3002,Injil,2017-03-21,Flood / flash flood,0,0,938,134,100,34,Spring,34.411669,62.207729
South Eastern,11,Ghazni,1118,Gelan,2017-03-21,Flood / flash flood,0,0,7,1,1,0,Spring,32.69335,67.670183
South Eastern,11,Ghazni,1116,Ajrestan,2017-03-22,Flood / flash flood,0,0,14,2,0,2,Spring,33.520052,67.09681
Southern,34,Nimroz,3404,Chakhansur,2017-03-23,Flood / flash flood,0,0,1196,192,132,60,Spring,31.375184,62.486654
Central Highland,10,Bamyan,1003,Yakawlang,2017-03-25,Avalanche,0,0,0,0,0,0,Spring,35.039948,66.994871
Western,30,Hirat,3007,Karukh,2017-03-26,Flood / flash flood,1,0,210,30,10,20,Spring,34.483692,62.656587
Northern,18,Balkh,1810,Kaldar,2017-03-27,Flood / flash flood,0,0,476,68,0,68,Spring,37.111494,67.520118
Western,21,Ghor,2108,Lal Wa Sarjangal,2017-03-27,Flood / flash flood,0,0,133,19,19,0,Spring,34.567173,66.208738
Northern,18,Balkh,1803,Shortepa,2017-03-27,Flood / flash flood,0,0,196,28,0,28,Spring,37.213477,66.83258
Western,30,Hirat,3005,Guzara,2017-03-28,Flood / flash flood,0,0,539,77,20,57,Spring,34.040952,62.013878
Western,30,Hirat,3001,Hirat,2017-03-28,Flood / flash flood,0,0,322,46,0,46,Spring,34.395992,62.231053
Western,30,Hirat,3002,Injil,2017-03-28,Flood / flash flood,0,0,112,16,16,0,Spring,34.411669,62.207729
Western,30,Hirat,3012,Obe,2017-03-29,Flood / flash flood,0,0,0,0,0,0,Spring,34.380977,63.292026
Western,30,Hirat,3006,Pashtunzarghun,2017-03-29,Flood / flash flood,0,0,0,0,0,0,Spring,34.13202,62.728806
Western,30,Hirat,3002,Injil,2017-03-29,Flood / flash flood,0,0,49,7,7,0,Spring,34.411669,62.207729
Western,30,Hirat,3001,Hirat,2017-03-29,Flood / flash flood,0,0,1883,269,269,0,Spring,34.395992,62.231053
Central Highland,10,Bamyan,1001,Bamyan,2017-03-29,Avalanche,1,3,9,1,0,1,Spring,34.755695,67.640391
Western,30,Hirat,3005,Guzara,2017-03-29,Flood / flash flood,0,0,0,0,0,0,Spring,34.040952,62.013878
Western,30,Hirat,3003,Kushk,2017-03-29,Flood / flash flood,0,0,399,57,57,0,Spring,35.013721,62.201428
Central Highland,10,Bamyan,1003,Yakawlang,2017-03-30,Landslide / mudflow,0,0,17,2,2,2,Spring,35.039948,66.994871
North Eastern,15,Badakhshan,1514,Shighnan,2017-03-30,Landslide / mudflow,0,0,42,7,5,2,Spring,37.60885,71.366023
North Eastern,15,Badakhshan,1514,Shighnan,2017-03-30,Avalanche,2,0,2,0,0,0,Spring,37.60885,71.366023
Northern,18,Balkh,1805,Balkh,2017-04-01,Flood / flash flood,0,0,49,7,3,4,Spring,36.807653,66.881765
North Eastern,9,Baghlan,901,Pul-e-Khumri,2017-04-02,Flood / flash flood,0,0,7,1,0,1,Spring,36.011946,68.636293
North Eastern,15,Badakhshan,1517,Khwahan,2017-04-05,Landslide / mudflow,1,0,1,0,0,0,Spring,36.74831,70.127355
Central Highland,22,Daykundi,2209,Miramor,2017-04-05,Landslide / mudflow,0,0,15,3,3,3,Spring,33.826512,66.987777
Eastern,13,Kunar,1302,Watapur,2017-04-06,Flood / flash flood,0,0,10,1,1,0,Spring,34.972029,71.079464
Eastern,13,Kunar,1301,Asadabad,2017-04-06,Flood / flash flood,0,0,14,2,2,0,Spring,34.859883,71.117064
North Eastern,15,Badakhshan,1507,Yawan,2017-04-07,Flood / flash flood,0,0,0,0,0,0,Spring,37.514601,70.388243
North Eastern,15,Badakhshan,1512,Baharak,2017-04-08,Landslide / mudflow,0,0,132,22,22,0,Spring,37.017329,70.910623
North Eastern,15,Badakhshan,1502,Yaftal-e-Sufla,2017-04-10,Flood / flash flood,0,0,138,23,23,0,Spring,37.29251,70.36165
Central Highland,10,Bamyan,1004,Panjab,2017-04-10,Flood / flash flood,0,0,17,2,2,0,Spring,34.38689,66.930673
North Eastern,15,Badakhshan,1501,Fayzabad,2017-04-11,Flood / flash flood,0,0,36,6,6,0,Spring,37.217022,70.62815
North Eastern,16,Takhar,1616,Warsaj,2017-04-17,Flood / flash flood,0,0,14,2,0,2,Spring,36.104684,70.158583
Northern,19,Samangan,1907,Ruy-e-Duab,2017-04-18,Flood / flash flood,0,0,735,105,100,5,Spring,35.611123,67.76801
North Eastern,15,Badakhshan,1507,Yawan,2017-04-19,Flood / flash flood,0,0,0,0,0,0,Spring,37.514601,70.388243
Northern,19,Samangan,1901,Aybak,2017-04-20,Flood / flash flood,0,0,98,14,13,1,Spring,36.235103,68.237777
North Eastern,16,Takhar,1609,Rostaq,2017-04-20,Flood / flash flood,0,0,203,29,23,6,Spring,37.110428,69.836849
North Eastern,9,Baghlan,909,Khwajahejran,2017-04-20,Flood / flash flood,0,0,189,27,16,11,Spring,35.993359,69.294979
North Eastern,15,Badakhshan,1509,Teshkan,2017-04-20,Flood / flash flood,0,0,665,95,32,63,Spring,36.800862,70.366348
North Eastern,9,Baghlan,905,Nahrin,2017-04-20,Flood / flash flood,2,0,315,45,31,14,Spring,36.004002,69.020081
Central Highland,10,Bamyan,1003,Yakawlang,2017-04-20,Flood / flash flood,0,0,40,5,0,5,Spring,35.039948,66.994871
Northern,18,Balkh,1815,Keshendeh,2017-04-20,Flood / flash flood,1,0,693,99,99,0,Spring,35.926279,66.929505
North Eastern,9,Baghlan,908,Andarab,2017-04-20,Flood / flash flood,2,0,210,30,9,21,Spring,35.604741,69.187513
North Eastern,9,Baghlan,901,Pul-e-Khumri,2017-04-20,Flood / flash flood,1,0,1904,272,158,114,Spring,36.011946,68.636293
North Eastern,16,Takhar,1608,Kalafgan,2017-04-21,Flood / flash flood,0,0,14,2,2,0,Spring,36.780002,69.908015
North Eastern,16,Takhar,1601,Taloqan,2017-04-21,Flood / flash flood,0,0,140,20,16,4,Spring,36.742722,69.523116
North Eastern,15,Badakhshan,1502,Yaftal-e-Sufla,2017-04-21,Flood / flash flood,0,0,161,23,10,0,Spring,37.29251,70.36165
Eastern,13,Kunar,1301,Asadabad,2017-04-21,Flood / flash flood,0,0,32,4,4,0,Spring,34.859883,71.117064
North Eastern,15,Badakhshan,1510,Darayem,2017-04-21,Flood / flash flood,0,0,980,140,115,25,Spring,36.892505,70.412044
North Eastern,15,Badakhshan,1502,Yaftal-e-Sufla,2017-04-21,Landslide / mudflow,0,0,1400,200,0,0,Spring,37.29251,70.36165
Eastern,13,Kunar,1305,Marawara,2017-04-21,Flood / flash flood,0,0,13,1,1,0,Spring,34.856211,71.219828
North Eastern,15,Badakhshan,1503,Argo,2017-04-21,Flood / flash flood,0,0,175,25,9,2,Spring,37.031002,70.413852
North Eastern,15,Badakhshan,1508,Shahr-e-Buzorg,2017-04-23,Flood / flash flood,0,0,315,45,37,8,Spring,37.315953,70.144747
North Eastern,16,Takhar,1608,Kalafgan,2017-04-23,Flood / flash flood,0,0,21,3,2,1,Spring,36.780002,69.908015
North Eastern,16,Takhar,1615,Eshkmesh,2017-04-23,Flood / flash flood,0,0,112,16,14,4,Spring,36.390203,69.386506
North Eastern,15,Badakhshan,1507,Yawan,2017-04-26,Landslide / mudflow,0,0,0,0,0,0,Spring,37.514601,70.388243
North Eastern,15,Badakhshan,1507,Yawan,2017-04-27,Landslide / mudflow,0,0,0,0,0,0,Spring,37.514601,70.388243
South Eastern,26,Khost,2610,Shamal,2017-05-01,Flood / flash flood,0,0,21,3,3,0,Spring,33.321153,69.533903
Western,21,Ghor,2101,Chaghcharan,2017-05-01,Flood / flash flood,0,0,399,57,57,0,Spring,34.524334,65.238265
Northern,18,Balkh,1810,Kaldar,2017-05-01,Flood / flash flood,0,0,504,72,0,72,Spring,37.111494,67.520118
South Eastern,26,Khost,2604,Nadirshahkot,2017-05-01,Flood / flash flood,0,0,49,7,5,2,Spring,33.386827,69.687169
South Eastern,26,Khost,2605,Mandozayi,2017-05-01,Flood / flash flood,0,0,77,11,11,0,Spring,33.336522,69.803569
Northern,18,Balkh,1803,Shortepa,2017-05-01,Flood / flash flood,0,0,280,40,0,40,Spring,37.213477,66.83258
South Eastern,26,Khost,2601,Khost (Matun),2017-05-01,Flood / flash flood,0,0,70,10,10,0,Spring,33.337571,69.91725
Northern,18,Balkh,1803,Shortepa,2017-05-04,Flood / flash flood,0,0,434,62,0,62,Spring,37.213477,66.83258
North Eastern,15,Badakhshan,1505,Kohestan,2017-05-06,Flood / flash flood,0,0,0,0,0,0,Spring,37.410686,70.662149
North Eastern,9,Baghlan,905,Nahrin,2017-05-07,Flood / flash flood,0,0,98,14,5,9,Spring,36.004002,69.020081
North Eastern,9,Baghlan,909,Khwajahejran,2017-05-07,Flood / flash flood,0,0,35,5,4,1,Spring,35.993359,69.294979
Northern,19,Samangan,1906,Khuram Wa Sarbagh,2017-05-07,Flood / flash flood,0,0,98,14,14,0,Spring,35.946376,68.057426
North Eastern,9,Baghlan,908,Andarab,2017-05-07,Flood / flash flood,0,0,196,28,23,5,Spring,35.604741,69.187513
North Eastern,9,Baghlan,907,Khenjan,2017-05-07,Flood / flash flood,1,1,245,35,18,17,Spring,35.453058,68.986856
Western,21,Ghor,2101,Chaghcharan,2017-05-07,Flood / flash flood,0,0,651,93,0,0,Spring,34.524334,65.238265
North Eastern,9,Baghlan,911,Pul-e- Hesar,2017-05-07,Flood / flash flood,0,0,42,6,5,1,Spring,35.58662,69.535737
Northern,19,Samangan,1901,Aybak,2017-05-07,Flood / flash flood,0,0,210,30,16,14,Spring,36.235103,68.237777
North Eastern,9,Baghlan,904,Doshi,2017-05-07,Flood / flash flood,0,0,14,2,0,2,Spring,35.582004,68.661703
North Eastern,16,Takhar,1607,Farkhar,2017-05-07,Flood / flash flood,0,0,294,42,39,3,Spring,36.477265,69.963273
Central Highland,10,Bamyan,1003,Yakawlang,2017-05-08,Landslide / mudflow,0,0,17,3,0,3,Spring,35.039948,66.994871
Central Highland,10,Bamyan,1004,Panjab,2017-05-12,Flood / flash flood,0,0,203,29,0,29,Spring,34.38689,66.930673
Central Highland,10,Bamyan,1007,Waras,2017-05-12,Flood / flash flood,0,0,266,35,0,35,Spring,34.163208,66.930112
Central Highland,10,Bamyan,1006,Kahmard,2017-05-12,Flood / flash flood,0,0,147,21,0,0,Spring,35.340373,67.749258
Central Highland,10,Bamyan,1003,Yakawlang,2017-05-12,Flood / flash flood,0,0,182,26,0,0,Spring,35.039948,66.994871
Central Highland,10,Bamyan,1002,Sayghan,2017-05-12,Flood / flash flood,0,0,126,18,0,0,Spring,35.124416,67.624207
North Eastern,15,Badakhshan,1521,Jorm,2017-05-15,Flood / flash flood,3,2,1792,256,144,112,Spring,36.724775,70.89802
North Eastern,15,Badakhshan,1503,Argo,2017-05-16,Flood / flash flood,0,0,140,20,10,10,Spring,37.031002,70.413852
Western,30,Hirat,3012,Obe,2017-05-16,Flood / flash flood,0,0,252,36,36,0,Spring,34.380977,63.292026
Western,29,Badghis,2905,Jawand,2017-05-16,Flood / flash flood,0,0,0,0,0,0,Spring,34.972066,64.274702
Western,21,Ghor,2101,Chaghcharan,2017-05-17,Flood / flash flood,0,0,1111,150,51,42,Spring,34.524334,65.238265
Eastern,13,Kunar,1307,Dara-e-Pech,2017-05-22,Flood / flash flood,0,0,14,2,2,0,Spring,34.931473,70.911379
Northern,27,Jawzjan,2709,Qarqin,2017-05-23,Flood / flash flood,0,0,0,0,56,0,Spring,37.299548,66.032927
Eastern,7,Laghman,704,Alingar,2017-06-12,Flood / flash flood,0,0,44,7,6,1,Summer,34.833038,70.425705
North Eastern,16,Takhar,1609,Rostaq,2017-06-13,Landslide / mudflow,0,0,245,35,27,8,Summer,37.110428,69.836849
Eastern,13,Kunar,1308,Chawkay,2017-06-14,Flood / flash flood,0,0,28,4,4,0,Summer,34.745481,70.862733
Eastern,13,Kunar,1306,Shigal Wa Sheltan,2017-06-28,Flood / flash flood,2,1,30,6,6,0,Summer,35.019947,71.233756
Eastern,13,Kunar,1308,Chawkay,2017-06-28,Flood / flash flood,0,0,12,2,2,0,Summer,34.745481,70.862733
Eastern,13,Kunar,1303,Narang,2017-06-28,Flood / flash flood,0,0,6,1,1,0,Summer,34.817816,71.019069
Eastern,13,Kunar,1307,Dara-e-Pech,2017-06-28,Flood / flash flood,1,4,128,19,19,0,Summer,34.931473,70.911379
Eastern,13,Kunar,1309,Khaskunar,2017-06-28,Flood / flash flood,0,0,6,1,0,1,Summer,34.599138,70.919872
South Eastern,26,Khost,2602,Sabari,2017-06-29,Flood / flash flood,0,0,49,7,7,0,Summer,33.492199,69.952329
South Eastern,26,Khost,2606,Tani,2017-06-29,Flood / flash flood,0,0,21,3,3,0,Summer,33.204652,69.735546
South Eastern,25,Paktika,2504,Sarrawzah(Sarhawzah),2017-06-29,Flood / flash flood,0,0,84,12,12,0,Summer,33.114539,69.124714
South Eastern,25,Paktika,2510,Urgun,2017-06-29,Flood / flash flood,0,0,105,15,15,0,Summer,32.963344,69.206727
South Eastern,26,Khost,2601,Khost (Matun),2017-06-29,Flood / flash flood,0,0,133,19,10,9,Summer,33.337571,69.91725
North Eastern,15,Badakhshan,1512,Baharak,2017-07-08,Flood / flash flood,0,0,133,19,10,9,Summer,37.017329,70.910623
Northern,18,Balkh,1810,Kaldar,2017-07-13,Flood / flash flood,0,0,2331,333,0,333,Summer,37.111494,67.520118
South Eastern,11,Ghazni,1101,Ghazni,2017-07-13,Flood / flash flood,0,0,42,6,6,0,Summer,33.541807,68.441991
Northern,18,Balkh,1803,Shortepa,2017-07-13,Flood / flash flood,0,0,1092,156,0,156,Summer,37.213477,66.83258
Eastern,6,Nangarhar,607,Kama,2017-07-14,Flood / flash flood,0,0,58,8,8,0,Summer,34.446776,70.68128
Capital,3,Parwan,310,Surkh-e- Parsa,2017-07-15,Flood / flash flood,0,0,357,51,50,1,Summer,34.742986,68.643355
South Eastern,26,Khost,2606,Tani,2017-07-16,Flood / flash flood,0,0,147,21,17,4,Summer,33.204652,69.735546
South Eastern,26,Khost,2601,Khost (Matun),2017-07-16,Flood / flash flood,0,0,203,29,27,2,Summer,33.337571,69.91725
Eastern,6,Nangarhar,619,Muhmand Dara,2017-07-16,Flood / flash flood,0,0,151,19,19,0,Summer,34.225081,70.971158
South Eastern,12,Paktya,1201,Gardez,2017-07-16,Flood / flash flood,0,0,56,8,3,5,Summer,33.599864,69.229343
Capital,1,Kabul,113,Surobi,2017-07-16,Flood / flash flood,11,7,252,36,14,22,Summer,34.63319,69.710301
South Eastern,12,Paktya,1204,Zurmat,2017-07-16,Flood / flash flood,0,0,42,6,4,2,Summer,33.422467,69.017192
Eastern,13,Kunar,1303,Narang,2017-07-22,Flood / flash flood,0,0,14,2,2,0,Summer,34.817816,71.019069
Eastern,13,Kunar,1309,Khaskunar,2017-07-22,Flood / flash flood,0,0,28,4,4,0,Summer,34.599138,70.919872
Northern,18,Balkh,1803,Shortepa,2017-08-05,Flood / flash flood,0,0,749,107,0,107,Summer,37.213477,66.83258
Eastern,13,Kunar,1315,Nari,2017-08-11,Flood / flash flood,1,3,7,1,1,0,Summer,35.177373,71.508298
Eastern,13,Kunar,1306,Shigal Wa Sheltan,2017-08-11,Flood / flash flood,0,0,7,1,1,0,Summer,35.019947,71.233756
Eastern,13,Kunar,1308,Chawkay,2017-08-11,Flood / flash flood,0,0,7,1,1,0,Summer,34.745481,70.862733
Eastern,13,Kunar,1301,Asadabad,2017-08-11,Flood / flash flood,0,0,21,3,3,0,Summer,34.859883,71.117064
Eastern,13,Kunar,1314,Nurgal,2017-08-11,Flood / flash flood,1,2,14,2,2,0,Summer,34.700584,70.728239
North Eastern,9,Baghlan,908,Andarab,2017-08-21,Landslide / mudflow,1,0,0,0,0,0,Summer,35.604741,69.187513
North Eastern,17,Kunduz,1701,Kunduz,2017-10-02,Flood / flash flood,0,0,91,13,0,13,Autumn,36.792264,68.86046
Central Highland,10,Bamyan,1003,Yakawlang,2017-10-25,Landslide / mudflow,0,0,0,0,0,0,Autumn,35.039948,66.994871
Capital,5,Logar,502,Khoshi,2017-11-05,Landslide / mudflow,0,0,140,20,0,0,Autumn,33.992404,69.292073
South Eastern,25,Paktika,2505,Zarghunshahr,2018-01-02,Flood / flash flood,0,0,1120,160,160,0,Winter,32.874959,68.442357
South Eastern,25,Paktika,2512,Janikhel,2018-01-03,Flood / flash flood,0,0,980,140,140,0,Winter,32.720219,68.452528
North Eastern,15,Badakhshan,1506,Raghestan,2018-01-28,Avalanche,1,2,3,0,0,0,Winter,37.67991,70.64017
North Eastern,15,Badakhshan,1505,Kohestan,2018-01-28,Landslide / mudflow,4,4,8,0,0,0,Winter,37.410686,70.662149
Eastern,13,Kunar,1309,Khaskunar,2018-01-31,Earthquake,0,0,7,2,2,0,Winter,34.599138,70.919872
Eastern,13,Kunar,1311,Barkunar,2018-01-31,Earthquake,0,0,42,6,6,0,Winter,35.062438,71.392415
Eastern,13,Kunar,1310,Dangam,2018-01-31,Earthquake,0,0,35,5,5,0,Winter,35.015631,71.446189
Eastern,13,Kunar,1306,Shigal Wa Sheltan,2018-01-31,Earthquake,0,0,28,4,4,0,Winter,35.019947,71.233756
South Eastern,12,Paktya,1208,Alikhel (Jaji),2018-02-12,Flood / flash flood,0,0,280,40,40,0,Winter,33.954034,69.697367
South Eastern,12,Paktya,1201,Gardez,2018-02-12,Flood / flash flood,0,0,420,60,60,0,Winter,33.599864,69.229343
Eastern,13,Kunar,1314,Nurgal,2018-02-12,Flood / flash flood,0,0,31,3,3,0,Winter,34.700584,70.728239
South Eastern,12,Paktya,1202,Sayedkaram,2018-02-13,Flood / flash flood,0,0,175,25,25,0,Winter,33.731336,69.469893
South Eastern,12,Paktya,1206,Zadran,2018-02-13,Flood / flash flood,0,0,210,30,30,0,Winter,33.416216,69.424522
Capital,3,Parwan,303,Shinwari,2018-02-14,Heavy snowfall,0,0,70,10,8,2,Winter,35.135028,68.973098
North Eastern,16,Takhar,1612,Khwajabahawuddin,2018-02-15,Flood / flash flood,0,0,182,26,26,0,Winter,37.346667,69.533889
Northern,18,Balkh,1802,Nahr-e-Shahi,2018-02-19,Flood / flash flood,0,0,133,19,19,0,Winter,36.827572,67.23353
Western,30,Hirat,3006,Pashtunzarghun,2018-02-26,Flood / flash flood,0,0,0,0,0,0,Winter,34.13202,62.728806
Western,29,Badghis,2904,Qadis,2018-02-26,Flood / flash flood,6,0,6,0,0,0,Winter,34.798054,63.578057
Southern,33,Kandahar,3301,Kandahar,2018-02-26,Earthquake,0,0,807,101,0,0,Winter,31.518012,65.697431
Western,30,Hirat,3007,Karukh,2018-02-26,Flood / flash flood,0,0,168,26,0,26,Winter,34.483692,62.656587
Western,31,Farah,3101,Farah,2018-03-01,Flood / flash flood,0,0,1106,130,8,87,Spring,32.23408,62.222932
Eastern,13,Kunar,1314,Nurgal,2018-03-03,Flood / flash flood,0,0,14,2,0,2,Spring,34.700584,70.728239
Western,21,Ghor,2108,Lal Wa Sarjangal,2018-03-05,Flood / flash flood,0,0,14,2,0,2,Spring,34.567173,66.208738
Western,29,Badghis,2901,Qala-e-Naw,2018-03-09,Landslide / mudflow,0,0,6,1,1,0,Spring,34.861003,63.130681
Eastern,13,Kunar,1306,Shigal Wa Sheltan,2018-03-10,Flood / flash flood,0,3,21,3,2,1,Spring,35.019947,71.233756
South Eastern,12,Paktya,1201,Gardez,2018-03-19,Flood / flash flood,0,0,77,11,11,0,Spring,33.599864,69.229343
Central Highland,10,Bamyan,1001,Bamyan,2018-03-25,Flood / flash flood,0,0,14,2,0,2,Spring,34.755695,67.640391
North Eastern,15,Badakhshan,1502,Yaftal-e-Sufla,2018-04-08,Flood / flash flood,0,0,35,5,0,5,Spring,37.29251,70.36165
Eastern,13,Kunar,1314,Nurgal,2018-04-08,Flood / flash flood,0,0,6,1,1,0,Spring,34.700584,70.728239
Eastern,13,Kunar,1301,Asadabad,2018-04-08,Flood / flash flood,0,0,16,2,0,2,Spring,34.859883,71.117064
Eastern,13,Kunar,1303,Narang,2018-04-08,Flood / flash flood,0,0,21,3,0,3,Spring,34.817816,71.019069
Eastern,13,Kunar,1302,Watapur,2018-04-08,Flood / flash flood,0,0,14,2,1,1,Spring,34.972029,71.079464
Eastern,13,Kunar,1305,Marawara,2018-04-08,Flood / flash flood,0,0,14,2,2,0,Spring,34.856211,71.219828
Capital,2,Kapisa,201,Mahmud-e-Raqi,2018-04-09,Flood / flash flood,0,0,182,26,25,1,Spring,35.01233,69.382066
Eastern,7,Laghman,703,Qarghayi,2018-04-09,Flood / flash flood,0,0,44,5,2,3,Spring,34.543504,70.214523
Western,21,Ghor,2106,Taywarah,2018-04-09,Flood / flash flood,0,0,0,0,0,0,Spring,33.514124,64.40105
Eastern,7,Laghman,701,Mehtarlam,2018-04-09,Flood / flash flood,0,0,46,5,2,3,Spring,34.666954,70.071718
Western,21,Ghor,2105,Shahrak,2018-04-09,Flood / flash flood,0,0,0,0,0,0,Spring,34.225392,64.289289
Capital,2,Kapisa,202,Nejrab,2018-04-09,Flood / flash flood,0,0,182,26,26,0,Spring,35.041318,69.632485
Capital,2,Kapisa,203,Kohband,2018-04-09,Flood / flash flood,0,0,91,13,13,0,Spring,35.110987,69.460654
Capital,2,Kapisa,205,Tagab,2018-04-09,Flood / flash flood,0,0,98,14,13,1,Spring,34.803659,69.649529
Capital,3,Parwan,301,Charikar,2018-04-15,Flood / flash flood,0,0,42,6,4,2,Spring,34.955632,69.120882
Capital,3,Parwan,308,Koh-e-Safi,2018-04-15,Flood / flash flood,0,0,63,9,9,0,Spring,34.754573,69.468075
Capital,3,Parwan,307,Ghorband,2018-04-15,Flood / flash flood,0,0,7,1,0,1,Spring,34.987058,68.799341
Western,29,Badghis,2902,Muqur,2018-04-15,Flood / flash flood,0,0,0,0,0,0,Spring,35.108166,63.260315
Capital,3,Parwan,304,Bagram,2018-04-15,Flood / flash flood,0,0,28,4,3,1,Spring,34.905671,69.377716
Western,30,Hirat,3008,Gulran,2018-04-16,Flood / flash flood,0,0,0,0,0,0,Spring,35.111466,61.695729
Western,29,Badghis,2906,Balamurghab,2018-04-17,Flood / flash flood,0,0,0,0,0,0,Spring,35.496473,63.489881
Western,30,Hirat,3016,Chisht-e-Sharif,2018-04-17,Flood / flash flood,0,0,0,0,0,0,Spring,34.372017,63.768442
Eastern,13,Kunar,1314,Nurgal,2018-04-19,Flood / flash flood,0,1,56,8,3,5,Spring,34.700584,70.728239
Eastern,13,Kunar,1306,Shigal Wa Sheltan,2018-04-19,Flood / flash flood,0,0,28,4,4,0,Spring,35.019947,71.233756
Eastern,13,Kunar,1304,Sarkani,2018-04-19,Flood / flash flood,0,0,7,1,0,1,Spring,34.705403,71.086416
Eastern,7,Laghman,703,Qarghayi,2018-04-20,Flood / flash flood,0,0,22,3,3,0,Spring,34.543504,70.214523
Eastern,7,Laghman,702,Alishang,2018-04-20,Flood / flash flood,0,0,17,3,3,0,Spring,34.866429,70.072183
Eastern,7,Laghman,704,Alingar,2018-04-20,Flood / flash flood,0,0,134,26,26,0,Spring,34.833038,70.425705
Eastern,7,Laghman,701,Mehtarlam,2018-04-20,Flood / flash flood,0,0,165,23,8,15,Spring,34.666954,70.071718
Eastern,6,Nangarhar,622,Durbaba,2018-04-21,Flood / flash flood,0,0,118,16,16,0,Spring,34.098842,70.943709
North Eastern,16,Takhar,1610,Chahab,2018-04-25,Flood / flash flood,3,0,1309,187,69,17,Spring,37.426269,69.928441
North Eastern,15,Badakhshan,1501,Fayzabad,2018-04-25,Flood / flash flood,2,0,476,68,0,68,Spring,37.217022,70.62815
Eastern,13,Kunar,1301,Asadabad,2018-04-29,Flood / flash flood,0,0,17,2,2,0,Spring,34.859883,71.117064
Central Highland,10,Bamyan,1001,Bamyan,2018-05-06,Flood / flash flood,0,0,28,4,4,0,Spring,34.755695,67.640391
North Eastern,9,Baghlan,912,Dehsalah,2018-05-08,Flood / flash flood,0,0,140,20,15,5,Spring,35.763124,69.309796
North Eastern,9,Baghlan,909,Khwajahejran,2018-05-08,Flood / flash flood,0,0,119,17,15,2,Spring,35.993359,69.294979
North Eastern,9,Baghlan,910,Burka,2018-05-08,Flood / flash flood,0,0,70,10,10,0,Spring,36.265304,69.161208
Eastern,14,Nuristan,1405,Wama,2018-05-08,Flood / flash flood,0,0,49,7,7,0,Spring,35.107368,70.719288
North Eastern,9,Baghlan,905,Nahrin,2018-05-08,Flood / flash flood,0,0,434,62,26,36,Spring,36.004002,69.020081
North Eastern,9,Baghlan,911,Pul-e- Hesar,2018-05-08,Flood / flash flood,0,0,49,7,6,1,Spring,35.58662,69.535737
Eastern,14,Nuristan,1401,Poruns,2018-05-08,Flood / flash flood,0,0,105,15,7,8,Spring,35.421264,70.787779
North Eastern,9,Baghlan,904,Doshi,2018-05-08,Flood / flash flood,0,0,357,51,39,12,Spring,35.582004,68.661703
North Eastern,9,Baghlan,902,Baghlan-e-Jadid,2018-05-08,Flood / flash flood,0,0,420,60,23,37,Spring,36.297339,68.720497
Central Highland,10,Bamyan,1001,Bamyan,2018-05-08,Flood / flash flood,0,0,14,2,1,1,Spring,34.755695,67.640391
North Eastern,9,Baghlan,901,Pul-e-Khumri,2018-05-08,Flood / flash flood,0,0,3262,466,257,209,Spring,36.011946,68.636293
North Eastern,16,Takhar,1605,Chal,2018-05-09,Earthquake,4,0,532,76,35,37,Spring,36.47408,69.562078
North Eastern,15,Badakhshan,1503,Argo,2018-05-09,Flood / flash flood,0,0,98,14,0,14,Spring,37.031002,70.413852
North Eastern,15,Badakhshan,1503,Argo,2018-05-09,Earthquake,0,0,28,4,0,4,Spring,37.031002,70.413852
North Eastern,16,Takhar,1616,Warsaj,2018-05-09,Earthquake,0,6,1491,213,163,50,Spring,36.104684,70.158583
North Eastern,15,Badakhshan,1518,Keshem,2018-05-09,Earthquake,0,0,98,14,1,14,Spring,36.74831,70.12736
North Eastern,15,Badakhshan,1521,Jorm,2018-05-09,Earthquake,0,0,175,25,25,0,Spring,36.724775,70.89802
North Eastern,16,Takhar,1606,Namakab,2018-05-09,Earthquake,1,3,749,107,24,79,Spring,36.431875,69.69493
North Eastern,15,Badakhshan,1509,Teshkan,2018-05-09,Earthquake,0,0,455,65,65,0,Spring,36.800862,70.366348
North Eastern,15,Badakhshan,1504,Arghanjkhwa,2018-05-09,Earthquake,0,0,168,24,11,13,Spring,37.366577,70.970672
North Eastern,15,Badakhshan,1502,Yaftal-e-Sufla,2018-05-09,Earthquake,0,0,882,126,81,45,Spring,37.29251,70.36165
North Eastern,15,Badakhshan,1502,Yaftal-e-Sufla,2018-05-09,Flood / flash flood,0,0,308,44,0,44,Spring,37.29251,70.36165
North Eastern,16,Takhar,1607,Farkhar,2018-05-09,Earthquake,0,1,567,81,60,21,Spring,36.477265,69.963273
North Eastern,15,Badakhshan,1527,Zebak,2018-05-09,Earthquake,0,0,140,20,18,2,Spring,36.361303,71.272312
North Eastern,15,Badakhshan,1501,Fayzabad,2018-05-09,Earthquake,0,0,35,5,0,5,Spring,37.217022,70.62815
North Eastern,9,Baghlan,901,Pul-e-Khumri,2018-05-09,Earthquake,0,0,21,3,0,3,Spring,36.011946,68.636293
North Eastern,15,Badakhshan,1513,Shuhada,2018-05-09,Earthquake,0,0,133,19,18,1,Spring,37.061091,71.185928
North Eastern,15,Badakhshan,1512,Baharak,2018-05-09,Earthquake,0,0,63,9,0,9,Spring,37.017329,70.910623
Eastern,6,Nangarhar,605,Chaparhar,2018-05-11,Flood / flash flood,0,0,33,7,0,7,Spring,34.298027,70.367422
Eastern,6,Nangarhar,608,Kuzkunar,2018-05-11,Flood / flash flood,0,0,16,2,2,0,Spring,34.579197,70.569434
Eastern,6,Nangarhar,601,Jalalabad,2018-05-11,Flood / flash flood,0,0,130,15,13,2,Spring,34.419822,70.436525
Eastern,6,Nangarhar,602,Behsud,2018-05-11,Flood / flash flood,0,0,23,2,0,2,Spring,34.423905,70.520494
Eastern,6,Nangarhar,612,Pachieragam,2018-05-11,Flood / flash flood,0,0,227,26,26,0,Spring,34.077161,70.302235
Western,21,Ghor,2109,Tolak,2018-05-12,Flood / flash flood,0,0,0,0,0,0,Spring,34.003325,63.675799
Eastern,7,Laghman,703,Qarghayi,2018-05-12,Flood / flash flood,0,0,35,5,0,0,Spring,34.543504,70.214523
North Eastern,16,Takhar,1601,Taloqan,2018-05-12,Flood / flash flood,0,3,77,11,11,0,Spring,36.742722,69.523116
Eastern,7,Laghman,702,Alishang,2018-05-12,Flood / flash flood,0,0,7,1,0,0,Spring,34.866429,70.072183
Western,21,Ghor,2101,Chaghcharan,2018-05-12,Flood / flash flood,0,0,194,30,0,0,Spring,34.524334,65.238265
Western,21,Ghor,2102,Charsadra,2018-05-12,Flood / flash flood,0,0,0,0,0,0,Spring,35.115234,65.017518
Eastern,7,Laghman,701,Mehtarlam,2018-05-12,Flood / flash flood,0,0,49,7,0,0,Spring,34.666954,70.071718
Eastern,7,Laghman,704,Alingar,2018-05-12,Flood / flash flood,0,0,17,2,2,7,Spring,34.833038,70.425705
North Eastern,16,Takhar,1604,Bangi,2018-05-13,Flood / flash flood,3,3,196,28,20,2,Spring,36.616511,69.336677
North Eastern,16,Takhar,1605,Chal,2018-05-13,Flood / flash flood,5,0,602,86,44,42,Spring,36.47408,69.562078
Western,29,Badghis,2902,Muqur,2018-05-13,Flood / flash flood,1,0,273,39,35,4,Spring,35.108166,63.260315
Eastern,13,Kunar,1301,Asadabad,2018-05-13,Flood / flash flood,0,0,420,60,51,9,Spring,34.859883,71.117064
Capital,1,Kabul,103,Shakardara,2018-05-13,Flood / flash flood,0,0,147,21,14,7,Spring,34.66827,69.06244
Eastern,13,Kunar,1315,Nari,2018-05-13,Flood / flash flood,0,0,21,3,3,0,Spring,35.177373,71.508298
Eastern,13,Kunar,1309,Khaskunar,2018-05-13,Flood / flash flood,0,0,21,3,3,0,Spring,34.599138,70.919872
Eastern,13,Kunar,1302,Watapur,2018-05-13,Flood / flash flood,0,0,21,3,3,0,Spring,34.972029,71.079464
Eastern,13,Kunar,1305,Marawara,2018-05-13,Flood / flash flood,0,0,77,11,10,1,Spring,34.856211,71.219828
North Eastern,16,Takhar,1601,Taloqan,2018-05-13,Flood / flash flood,0,1,105,15,7,7,Spring,36.742722,69.523116
Capital,3,Parwan,306,Salang,2018-05-14,Flood / flash flood,0,0,35,5,2,3,Spring,35.293998,69.163208
Capital,3,Parwan,309,Shekhali,2018-05-14,Flood / flash flood,0,0,35,5,5,0,Spring,34.961071,68.393194
Northern,19,Samangan,1906,Khuram Wa Sarbagh,2018-05-14,Flood / flash flood,0,0,0,0,0,0,Spring,35.946376,68.057426
Western,29,Badghis,2902,Muqur,2018-05-14,Flood / flash flood,20,0,18900,2700,2061,639,Spring,35.108166,63.260315
Capital,3,Parwan,303,Shinwari,2018-05-14,Flood / flash flood,0,0,84,12,12,0,Spring,35.135028,68.973098
Northern,19,Samangan,1901,Aybak,2018-05-14,Flood / flash flood,8,0,1218,174,0,0,Spring,36.235103,68.237777
Western,29,Badghis,2903,Abkamari,2018-05-14,Flood / flash flood,0,0,3472,496,398,105,Spring,35.013638,62.966459
Capital,3,Parwan,301,Charikar,2018-05-14,Flood / flash flood,0,0,56,8,6,2,Spring,34.955632,69.120882
Western,30,Hirat,3008,Gulran,2018-05-14,Flood / flash flood,0,0,980,140,40,0,Spring,35.111466,61.695729
Western,29,Badghis,2906,Balamurghab,2018-05-14,Flood / flash flood,1,0,0,0,0,0,Spring,35.496473,63.489881
Capital,3,Parwan,307,Ghorband,2018-05-14,Flood / flash flood,0,0,28,4,4,0,Spring,34.987058,68.799341
Capital,3,Parwan,308,Koh-e-Safi,2018-05-14,Flood / flash flood,0,0,56,8,8,0,Spring,34.754573,69.468075
Western,30,Hirat,3013,Kushk-e-Kohna,2018-05-15,Flood / flash flood,0,0,0,0,0,0,Spring,34.964375,62.49561
Eastern,14,Nuristan,1401,Poruns,2018-05-15,Flood / flash flood,0,0,238,34,18,16,Spring,35.421264,70.787779
Western,30,Hirat,3007,Karukh,2018-05-15,Flood / flash flood,0,0,0,0,0,0,Spring,34.483692,62.656587
Eastern,14,Nuristan,1406,Waygal,2018-05-15,Flood / flash flood,0,0,147,21,9,12,Spring,35.181413,70.997138
Northern,20,Sar-e-Pul,2001,Sar-e-Pul,2018-05-15,Flood / flash flood,0,0,147,21,0,0,Spring,36.290564,66.01419
Western,30,Hirat,3003,Kushk,2018-05-15,Flood / flash flood,0,0,0,0,0,0,Spring,35.013721,62.201428
Eastern,14,Nuristan,1405,Wama,2018-05-15,Flood / flash flood,0,0,63,9,9,0,Spring,35.107368,70.719288
Northern,19,Samangan,1906,Khuram Wa Sarbagh,2018-05-16,Flood / flash flood,0,0,0,0,0,0,Spring,35.946376,68.057426
Northern,19,Samangan,1901,Aybak,2018-05-16,Flood / flash flood,0,0,0,0,0,0,Spring,36.235103,68.237777
North Eastern,17,Kunduz,1701,Kunduz,2018-05-16,Flood / flash flood,0,0,343,49,33,16,Spring,36.792264,68.86046
North Eastern,17,Kunduz,1706,Khanabad,2018-05-16,Flood / flash flood,0,0,119,17,0,17,Spring,36.645961,69.105452
North Eastern,17,Kunduz,1707,Dasht-e-Archi,2018-05-16,Flood / flash flood,0,0,0,0,0,0,Spring,36.95444,69.148113
Northern,18,Balkh,1814,Sholgareh,2018-05-16,Flood / flash flood,0,0,0,119,0,0,Spring,36.292986,66.864805
North Eastern,17,Kunduz,1702,Emamsaheb,2018-05-16,Flood / flash flood,0,0,581,83,0,83,Spring,37.074314,68.851102
Northern,18,Balkh,1809,Khulm,2018-05-16,Flood / flash flood,0,0,280,40,38,2,Spring,36.842767,67.681307
Northern,20,Sar-e-Pul,2001,Sar-e-Pul,2018-05-17,Flood / flash flood,0,0,4179,597,378,108,Spring,36.290564,66.01419
North Eastern,16,Takhar,1609,Rostaq,2018-05-17,Landslide / mudflow,1,0,175,25,8,17,Spring,37.110428,69.836849
Northern,27,Jawzjan,2701,Shiberghan,2018-05-18,Flood / flash flood,0,0,833,119,49,70,Spring,36.626436,65.77841
Northern,18,Balkh,1809,Khulm,2018-05-18,Flood / flash flood,0,0,2541,363,22,341,Spring,36.842767,67.681307
Northern,18,Balkh,1814,Sholgareh,2018-05-18,Flood / flash flood,0,0,301,43,43,0,Spring,36.292986,66.864805
North Eastern,16,Takhar,1604,Bangi,2018-05-18,Flood / flash flood,0,0,0,0,0,0,Spring,36.616511,69.336677
Northern,27,Jawzjan,2705,Fayzabad,2018-05-18,Flood / flash flood,0,0,2156,308,0,308,Spring,36.73986,66.361958
Northern,19,Samangan,1901,Aybak,2018-05-19,Flood / flash flood,0,0,2058,294,230,64,Spring,36.235103,68.237777
Central Highland,10,Bamyan,1006,Kahmard,2018-05-19,Flood / flash flood,0,0,343,49,45,4,Spring,35.340373,67.749258
Northern,18,Balkh,1814,Sholgareh,2018-05-21,Flood / flash flood,0,0,469,67,66,1,Spring,36.292986,66.864805
Northern,20,Sar-e-Pul,2001,Sar-e-Pul,2018-05-22,Flood / flash flood,0,0,0,0,0,0,Spring,36.290564,66.01419
Northern,20,Sar-e-Pul,2002,Sayad,2018-05-22,Flood / flash flood,0,0,875,125,0,0,Spring,36.072842,65.643409
Northern,18,Balkh,1816,Zari,2018-05-22,Flood / flash flood,0,0,567,81,81,0,Spring,35.860437,66.714557
North Eastern,15,Badakhshan,1503,Argo,2018-05-24,Flood / flash flood,0,0,0,0,0,0,Spring,37.031002,70.413852
North Eastern,16,Takhar,1610,Chahab,2018-05-24,Flood / flash flood,0,0,0,0,0,0,Spring,37.426269,69.928441
North Eastern,15,Badakhshan,1501,Fayzabad,2018-05-24,Flood / flash flood,0,0,735,105,0,0,Spring,37.217022,70.62815
North Eastern,15,Badakhshan,1502,Yaftal-e-Sufla,2018-05-24,Flood / flash flood,0,0,0,0,0,0,Spring,37.29251,70.36165
North Eastern,15,Badakhshan,1501,Fayzabad,2018-05-26,Flood / flash flood,0,0,273,39,0,39,Spring,37.217022,70.62815
North Eastern,16,Takhar,1609,Rostaq,2018-05-27,Landslide / mudflow,0,0,119,17,0,17,Spring,37.110428,69.836849
Eastern,6,Nangarhar,607,Kama,2018-06-06,Flood / flash flood,0,0,1666,238,238,0,Summer,34.446776,70.68128
Eastern,13,Kunar,1308,Chawkay,2018-06-07,Flood / flash flood,0,0,147,21,21,0,Summer,34.745481,70.862733
Northern,18,Balkh,1809,Khulm,2018-06-10,Flood / flash flood,0,0,231,33,33,0,Summer,36.842767,67.681307
Northern,18,Balkh,1814,Sholgareh,2018-06-14,Flood / flash flood,0,0,161,23,23,0,Summer,36.292986,66.864805
Eastern,13,Kunar,1314,Nurgal,2018-06-17,Flood / flash flood,0,0,154,22,20,2,Summer,34.700584,70.728239
Eastern,13,Kunar,1301,Asadabad,2018-07-01,Flood / flash flood,0,0,1134,162,155,7,Summer,34.859883,71.117064
Eastern,13,Kunar,1304,Sarkani,2018-07-01,Flood / flash flood,0,0,168,24,12,12,Summer,34.705403,71.086416
Eastern,14,Nuristan,1404,Nurgeram,2018-07-08,Flood / flash flood,0,0,147,21,3,17,Summer,35.073995,70.469496
Capital,4,Wardak,407,Saydabad,2018-07-12,Flood / flash flood,0,0,4613,659,74,1,Summer,33.934723,68.676363
Capital,8,Panjsher,805,Khenj (Hese- Awal),2018-07-12,Landslide / mudflow,0,0,917,131,0,131,Summer,35.59693,68.895664
Central Highland,10,Bamyan,1006,Kahmard,2018-07-26,Landslide / mudflow,0,0,98,14,9,5,Summer,35.340373,67.749258
Eastern,13,Kunar,1304,Sarkani,2018-07-27,Flood / flash flood,0,0,28,4,4,0,Summer,34.705403,71.086416
Eastern,13,Kunar,1302,Watapur,2018-07-27,Flood / flash flood,0,0,7,1,1,0,Summer,34.972029,71.079464
Eastern,13,Kunar,1301,Asadabad,2018-07-27,Flood / flash flood,0,0,889,127,125,2,Summer,34.859883,71.117064
Eastern,13,Kunar,1305,Marawara,2018-07-27,Flood / flash flood,0,0,210,30,26,4,Summer,34.856211,71.219828
Eastern,13,Kunar,1314,Nurgal,2018-08-07,Flood / flash flood,0,0,7,1,1,0,Summer,34.700584,70.728239
Eastern,13,Kunar,1309,Khaskunar,2018-08-07,Flood / flash flood,0,0,28,4,4,0,Summer,34.599138,70.919872
Eastern,13,Kunar,1305,Marawara,2018-08-07,Flood / flash flood,0,0,33,5,5,0,Summer,34.856211,71.219828
Eastern,13,Kunar,1312,Ghaziabad,2018-08-24,Flood / flash flood,0,0,56,8,5,3,Summer,35.209863,71.320771
Eastern,13,Kunar,1314,Nurgal,2018-09-07,Flood / flash flood,0,0,7,1,1,0,Autumn,34.700584,70.728239
Eastern,13,Kunar,1309,Khaskunar,2018-09-07,Flood / flash flood,0,0,21,3,3,0,Autumn,34.599138,70.919872
Eastern,13,Kunar,1308,Chawkay,2018-09-15,Flood / flash flood,0,0,21,3,3,0,Autumn,34.745481,70.862733
Eastern,13,Kunar,1301,Asadabad,2018-09-15,Flood / flash flood,0,0,98,14,14,0,Autumn,34.859883,71.117064
Eastern,6,Nangarhar,607,Kama,2018-09-15,Flood / flash flood,0,0,154,22,12,10,Autumn,34.446776,70.68128
Eastern,7,Laghman,704,Alingar,2018-09-15,Flood / flash flood,0,0,14,2,0,0,Autumn,34.833038,70.425705
Eastern,13,Kunar,1305,Marawara,2018-10-05,Flood / flash flood,0,0,7,1,1,0,Autumn,34.856211,71.219828
Eastern,13,Kunar,1303,Narang,2018-10-05,Flood / flash flood,0,0,7,1,1,0,Autumn,34.817816,71.019069
Eastern,13,Kunar,1306,Shigal Wa Sheltan,2018-10-05,Flood / flash flood,0,0,21,3,3,0,Autumn,35.019947,71.233756
Eastern,13,Kunar,1304,Sarkani,2018-10-05,Flood / flash flood,0,0,7,1,1,0,Autumn,34.705403,71.086416
Eastern,13,Kunar,1303,Narang,2018-10-08,Flood / flash flood,0,0,7,1,1,0,Autumn,34.817816,71.019069
Eastern,6,Nangarhar,608,Kuzkunar,2018-10-08,Flood / flash flood,0,0,588,84,82,2,Autumn,34.579197,70.569434
Eastern,13,Kunar,1314,Nurgal,2018-10-08,Flood / flash flood,0,0,14,2,2,0,Autumn,34.700584,70.728239
Eastern,13,Kunar,1311,Barkunar,2018-11-01,Flood / flash flood,0,0,35,5,5,0,Autumn,35.062438,71.392415
Eastern,13,Kunar,1306,Shigal Wa Sheltan,2018-11-01,Flood / flash flood,0,0,35,5,5,0,Autumn,35.019947,71.233756
Eastern,13,Kunar,1302,Watapur,2018-11-01,Flood / flash flood,0,0,175,25,25,0,Autumn,34.972029,71.079464
Eastern,13,Kunar,1301,Asadabad,2018-11-01,Flood / flash flood,0,0,126,18,18,0,Autumn,34.859883,71.117064
Eastern,7,Laghman,702,Alishang,2018-11-01,Flood / flash flood,0,0,91,13,0,0,Autumn,34.866429,70.072183
Eastern,7,Laghman,701,Mehtarlam,2018-11-01,Flood / flash flood,0,0,238,34,0,0,Autumn,34.666954,70.071718
Eastern,7,Laghman,703,Qarghayi,2018-11-01,Flood / flash flood,0,0,7,1,0,0,Autumn,34.543504,70.214523
Eastern,7,Laghman,704,Alingar,2018-11-01,Flood / flash flood,0,0,273,39,0,0,Autumn,34.833038,70.425705
Eastern,13,Kunar,1314,Nurgal,2018-11-01,Flood / flash flood,0,0,7,1,1,0,Autumn,34.700584,70.728239
North Eastern,9,Baghlan,901,Pul-e-Khumri,2018-11-30,Earthquake,2,9,1190,170,138,32,Autumn,36.011946,68.636293
North Eastern,15,Badakhshan,1502,Yaftal-e-Sufla,2019-01-03,Heavy snowfall,0,0,98,14,0,14,Winter,37.29251,70.36165
North Eastern,15,Badakhshan,1501,Fayzabad,2019-01-13,Flood / flash flood,0,0,105,15,0,15,Winter,37.217022,70.62815
North Eastern,15,Badakhshan,1519,Tagab,2019-01-13,Avalanche,0,0,259,37,0,37,Winter,36.479764,70.341949
North Eastern,15,Badakhshan,1519,Tagab,2019-01-14,Avalanche,0,0,399,57,0,57,Winter,36.479764,70.341949
North Eastern,15,Badakhshan,1506,Raghestan,2019-01-16,Flood / flash flood,0,0,0,0,0,0,Winter,37.67991,70.64017
North Eastern,15,Badakhshan,1520,Yamgan,2019-01-18,Avalanche,0,0,189,27,0,27,Winter,36.432054,70.7846
North Eastern,15,Badakhshan,1515,Darwaz-e-Balla,2019-01-21,Avalanche,1,1,35,5,1,4,Winter,38.444539,70.796354
Central Highland,22,Daykundi,2209,Miramor,2019-01-23,Avalanche,8,0,56,8,0,0,Winter,33.826512,66.987777
Western,30,Hirat,3005,Guzara,2019-02-04,Flood / flash flood,0,0,168,24,19,133,Winter,34.040952,62.013878
Central Highland,22,Daykundi,2201,Nili,2019-02-04,Heavy snowfall,0,0,7,1,0,1,Winter,33.741085,66.078538
Western,30,Hirat,3001,Hirat,2019-02-04,Flood / flash flood,0,0,266,38,8,56,Winter,34.395992,62.231053
Central Highland,10,Bamyan,1001,Bamyan,2019-02-05,Heavy snowfall,0,0,14,2,0,1,Winter,34.755695,67.640391
Eastern,13,Kunar,1314,Nurgal,2019-02-05,Flood / flash flood,0,0,15,2,2,2,Winter,34.700584,70.728239
Central Highland,22,Daykundi,2203,Khadir,2019-02-05,Heavy snowfall,0,0,7,1,0,1,Winter,33.866089,65.787183
Eastern,13,Kunar,1301,Asadabad,2019-02-05,Flood / flash flood,0,0,30,4,4,1,Winter,34.859883,71.117064
Southern,32,Hilmand,3201,Lashkargah,2019-02-10,Flood / flash flood,0,0,415,59,0,0,Winter,31.451536,64.522944
Western,30,Hirat,3009,Ghoryan,2019-02-12,Flood / flash flood,0,0,336,48,48,0,Winter,34.13368,61.053751
Western,30,Hirat,3014,Kohsan,2019-02-12,Flood / flash flood,0,0,42,6,6,0,Winter,34.771748,61.249098
Western,31,Farah,3104,khak-e-Safed,2019-02-12,Flood / flash flood,0,0,434,62,21,41,Winter,32.749551,62.103717
Western,31,Farah,3101,Farah,2019-02-12,Flood / flash flood,0,0,14,2,2,0,Winter,32.23408,62.222932
Western,30,Hirat,3005,Guzara,2019-02-12,Flood / flash flood,0,0,84,12,12,0,Winter,34.040952,62.013878
Western,30,Hirat,3001,Hirat,2019-02-12,Flood / flash flood,0,0,740,106,85,14,Winter,34.395992,62.231053
Western,31,Farah,3106,Qala-e-Kah,2019-02-12,Flood / flash flood,0,0,1750,250,30,220,Winter,32.497441,61.249601
Western,31,Farah,3105,Pushtrod,2019-02-12,Flood / flash flood,0,0,273,39,4,35,Winter,32.514573,62.125107
Western,29,Badghis,2901,Qala-e-Naw,2019-02-12,Heavy snowfall,0,0,4921,703,703,0,Winter,34.861003,63.130681
Western,30,Hirat,3003,Kushk,2019-02-12,Flood / flash flood,0,0,35,5,0,5,Winter,35.013721,62.201428
Western,30,Hirat,3002,Injil,2019-02-12,Flood / flash flood,0,0,441,63,38,6,Winter,34.411669,62.207729
Eastern,13,Kunar,1308,Chawkay,2019-02-14,Flood / flash flood,0,0,36,6,6,0,Winter,34.745481,70.862733
Eastern,13,Kunar,1305,Marawara,2019-02-14,Flood / flash flood,0,0,169,23,23,1,Winter,34.856211,71.219828
Eastern,7,Laghman,703,Qarghayi,2019-02-14,Flood / flash flood,0,0,4,1,0,1,Winter,34.543504,70.214523
Eastern,13,Kunar,1301,Asadabad,2019-02-14,Flood / flash flood,0,1,202,26,26,1,Winter,34.859883,71.117064
Eastern,13,Kunar,1313,Chapadara,2019-02-14,Flood / flash flood,0,0,217,31,31,11,Winter,34.901138,70.700645
Eastern,13,Kunar,1314,Nurgal,2019-02-14,Flood / flash flood,0,0,57,7,7,3,Winter,34.700584,70.728239
Eastern,13,Kunar,1312,Ghaziabad,2019-02-14,Flood / flash flood,0,0,77,11,11,0,Winter,35.209863,71.320771
Eastern,13,Kunar,1310,Dangam,2019-02-14,Flood / flash flood,0,0,91,13,13,1,Winter,35.015631,71.446189
Eastern,13,Kunar,1307,Dara-e-Pech,2019-02-14,Flood / flash flood,0,0,224,32,32,7,Winter,34.931473,70.911379
Eastern,13,Kunar,1315,Nari,2019-02-14,Flood / flash flood,0,0,105,15,15,3,Winter,35.177373,71.508298
Central Highland,22,Daykundi,2201,Nili,2019-02-14,Heavy snowfall,0,0,14,2,0,2,Winter,33.741085,66.078538
Eastern,7,Laghman,701,Mehtarlam,2019-02-14,Flood / flash flood,0,0,54,8,8,0,Winter,34.666954,70.071718
Eastern,13,Kunar,1302,Watapur,2019-02-14,Flood / flash flood,0,0,56,8,8,0,Winter,34.972029,71.079464
Eastern,13,Kunar,1306,Shigal Wa Sheltan,2019-02-14,Flood / flash flood,0,0,217,31,31,9,Winter,35.019947,71.233756
North Eastern,15,Badakhshan,1501,Fayzabad,2019-02-15,Heavy snowfall,0,0,112,16,0,16,Winter,37.217022,70.62815
North Eastern,15,Badakhshan,1523,Eshkashem,2019-02-16,Avalanche,0,0,112,16,0,16,Winter,36.87976,71.44928
Eastern,14,Nuristan,1408,Barg-e- Matal,2019-02-17,Heavy snowfall,0,0,77,11,11,0,Winter,35.756716,71.229678
Eastern,14,Nuristan,1401,Poruns,2019-02-17,Heavy snowfall,0,0,780,96,86,10,Winter,35.421264,70.787779
Eastern,14,Nuristan,1405,Wama,2019-02-17,Heavy snowfall,1,3,596,69,68,1,Winter,35.107368,70.719288
Eastern,14,Nuristan,1407,Kamdesh,2019-02-17,Heavy snowfall,0,0,546,78,78,0,Winter,35.470783,71.312139
Eastern,13,Kunar,1314,Nurgal,2019-02-20,Flood / flash flood,0,0,35,5,5,0,Winter,34.700584,70.728239
Eastern,13,Kunar,1309,Khaskunar,2019-02-20,Flood / flash flood,0,0,18,2,2,0,Winter,34.599138,70.919872
Eastern,13,Kunar,1305,Marawara,2019-02-20,Flood / flash flood,0,1,94,11,11,0,Winter,34.856211,71.219828
South Eastern,12,Paktya,1201,Gardez,2019-02-20,Heavy snowfall,0,0,175,25,18,7,Winter,33.599864,69.229343
Eastern,13,Kunar,1303,Narang,2019-02-20,Flood / flash flood,0,1,60,9,9,0,Winter,34.817816,71.019069
South Eastern,12,Paktya,1207,Lija Ahmad Khel,2019-02-20,Heavy snowfall,0,0,84,12,0,12,Winter,33.797792,69.605362
Eastern,13,Kunar,1308,Chawkay,2019-02-20,Flood / flash flood,0,0,35,5,5,0,Winter,34.745481,70.862733
South Eastern,12,Paktya,1211,Dand Wa Patan,2019-02-20,Heavy snowfall,0,0,77,11,7,4,Winter,33.809267,69.901955
Eastern,7,Laghman,701,Mehtarlam,2019-02-20,Flood / flash flood,0,0,124,15,15,0,Winter,34.666954,70.071718
South Eastern,12,Paktya,1206,Zadran,2019-02-20,Heavy snowfall,0,0,119,17,15,2,Winter,33.416216,69.424522
Eastern,13,Kunar,1301,Asadabad,2019-02-20,Flood / flash flood,0,0,194,27,27,0,Winter,34.859883,71.117064
Central Highland,22,Daykundi,2209,Miramor,2019-02-21,Avalanche,0,0,0,0,0,0,Winter,33.826512,66.987777
Central Highland,22,Daykundi,2209,Miramor,2019-02-22,Avalanche,0,0,0,0,0,0,Winter,33.826512,66.987777
South Eastern,11,Ghazni,1101,Ghazni,2019-02-22,Heavy snowfall,0,0,98,14,13,1,Winter,33.541807,68.441991
North Eastern,15,Badakhshan,1508,Shahr-e-Buzorg,2019-02-25,Heavy snowfall,0,0,63,9,9,0,Winter,37.315953,70.144747
Western,31,Farah,3106,Qala-e-Kah,2019-03-01,Flood / flash flood,0,0,10794,1542,0,0,Spring,32.497441,61.249601
Capital,2,Kapisa,201,Mahmud-e-Raqi,2019-03-01,Heavy snowfall,0,0,294,42,35,7,Spring,35.01233,69.382066
Western,30,Hirat,3012,Obe,2019-03-01,Flood / flash flood,0,0,0,0,0,0,Spring,34.380977,63.292026
Capital,2,Kapisa,204,Hisa-e-Duwum-e-Kohestan,2019-03-01,Heavy snowfall,0,0,140,20,14,6,Spring,35.069169,69.328034
Capital,3,Parwan,307,Ghorband,2019-03-01,Heavy snowfall,0,0,21,3,0,3,Spring,34.987058,68.799341
Western,30,Hirat,3015,Shindand,2019-03-01,Flood / flash flood,0,0,6967,995,995,0,Spring,33.266402,61.777242
Capital,3,Parwan,306,Salang,2019-03-01,Heavy snowfall,0,0,21,3,0,3,Spring,35.293998,69.163208
Western,30,Hirat,3010,Adraskan,2019-03-01,Flood / flash flood,0,0,0,0,0,0,Spring,33.72015,61.816468
Capital,3,Parwan,304,Bagram,2019-03-01,Heavy snowfall,0,0,140,20,15,2,Spring,34.905671,69.377716
Capital,2,Kapisa,202,Nejrab,2019-03-01,Heavy snowfall,0,0,210,30,27,3,Spring,35.041318,69.632485
Capital,3,Parwan,302,Jabalussaraj,2019-03-01,Heavy snowfall,0,0,119,17,12,3,Spring,35.12966,69.202044
Capital,3,Parwan,301,Charikar,2019-03-01,Heavy snowfall,0,0,490,70,53,22,Spring,34.955632,69.120882
Western,31,Farah,3102,Bakwa,2019-03-01,Flood / flash flood,0,0,98,14,14,0,Spring,32.22493,62.864123
Western,30,Hirat,3007,Karukh,2019-03-01,Flood / flash flood,0,0,7,1,0,1,Spring,34.483692,62.656587
Capital,1,Kabul,103,Shakardara,2019-03-01,Heavy snowfall,0,0,112,16,11,5,Spring,34.66827,69.06244
Western,31,Farah,3101,Farah,2019-03-01,Flood / flash flood,0,0,39242,5606,3033,2324,Spring,32.23408,62.222932
Capital,3,Parwan,309,Shekhali,2019-03-01,Heavy snowfall,0,0,70,10,6,4,Spring,34.961071,68.393194
Western,31,Farah,3111,Anardara,2019-03-01,Flood / flash flood,0,0,4697,671,0,0,Spring,32.708645,61.606863
Southern,24,Zabul,2401,Qalat,2019-03-02,Flood / flash flood,0,0,7738,935,895,40,Spring,32.187366,66.953465
Southern,32,Hilmand,3204,Nawa-e-Barakzaiy,2019-03-02,Flood / flash flood,2,0,5084,665,232,433,Spring,31.355971,64.217749
Southern,33,Kandahar,3303,Zheray,2019-03-02,Flood / flash flood,0,7,2226,320,42,278,Spring,31.6594,65.38371
Southern,33,Kandahar,3304,Panjwayi,2019-03-02,Flood / flash flood,0,4,2737,391,292,99,Spring,31.111277,65.198619
Southern,32,Hilmand,3202,Nahr-e-Saraj,2019-03-02,Flood / flash flood,0,0,153,15,15,0,Spring,31.82448,64.552445
Southern,33,Kandahar,3305,Daman,2019-03-02,Flood / flash flood,3,2,3234,455,340,115,Spring,31.156011,65.741152
Southern,33,Kandahar,3301,Kandahar,2019-03-02,Flood / flash flood,39,6,17633,2519,1780,739,Spring,31.518012,65.697431
Southern,33,Kandahar,3302,Arghandab,2019-03-02,Flood / flash flood,1,0,483,69,68,1,Spring,31.723683,65.628921
Southern,32,Hilmand,3203,Nad-e-Ali,2019-03-02,Flood / flash flood,0,0,1757,210,210,0,Spring,31.598961,63.835034
Southern,33,Kandahar,3311,Spinboldak,2019-03-02,Flood / flash flood,10,1,2926,418,321,97,Spring,30.952222,66.135407
Southern,32,Hilmand,3209,Garmser,2019-03-02,Flood / flash flood,0,0,7577,1061,865,116,Spring,30.435251,64.245131
Southern,32,Hilmand,3213,Deh-e- shu,2019-03-02,Flood / flash flood,0,0,2015,255,160,95,Spring,29.853347,63.259255
Southern,32,Hilmand,3201,Lashkargah,2019-03-02,Flood / flash flood,5,0,3732,494,223,271,Spring,31.451536,64.522944
Southern,33,Kandahar,3308,Maywand,2019-03-02,Flood / flash flood,2,11,3514,526,0,502,Spring,31.56697,64.93499
Southern,32,Hilmand,3212,Reg,2019-03-02,Flood / flash flood,0,0,6249,1008,644,364,Spring,30.574171,63.610859
Eastern,13,Kunar,1306,Shigal Wa Sheltan,2019-03-03,Flood / flash flood,0,0,469,67,67,0,Spring,35.019947,71.233756
South Eastern,12,Paktya,1209,Janikhel,2019-03-03,Heavy snowfall,0,0,301,43,0,43,Spring,33.62669,69.833488
South Eastern,26,Khost,2605,Mandozayi,2019-03-03,Flood / flash flood,0,1,406,58,44,14,Spring,33.336522,69.803569
Eastern,13,Kunar,1310,Dangam,2019-03-03,Flood / flash flood,0,0,63,9,9,0,Spring,35.015631,71.446189
Eastern,13,Kunar,1301,Asadabad,2019-03-03,Flood / flash flood,0,0,164,21,21,0,Spring,34.859883,71.117064
South Eastern,12,Paktya,1206,Zadran,2019-03-03,Heavy snowfall,0,0,63,9,9,0,Spring,33.416216,69.424522
Eastern,6,Nangarhar,610,Hesarak,2019-03-03,Flood / flash flood,0,0,100,15,14,1,Spring,34.24617,69.743543
South Eastern,26,Khost,2602,Sabari,2019-03-03,Flood / flash flood,0,0,98,14,13,1,Spring,33.492199,69.952329
Eastern,13,Kunar,1312,Ghaziabad,2019-03-03,Flood / flash flood,0,0,42,6,6,0,Spring,35.209863,71.320771
Eastern,7,Laghman,703,Qarghayi,2019-03-03,Flood / flash flood,0,0,61,11,11,0,Spring,34.543504,70.214523
Eastern,6,Nangarhar,602,Behsud,2019-03-03,Flood / flash flood,0,0,74,7,7,0,Spring,34.423905,70.520494
Eastern,13,Kunar,1305,Marawara,2019-03-03,Flood / flash flood,0,0,1034,146,146,0,Spring,34.856211,71.219828
Eastern,13,Kunar,1313,Chapadara,2019-03-03,Flood / flash flood,0,0,203,29,29,1,Spring,34.901138,70.700645
